<gpx version="1.1">
  <wpt lat="48.674264" lon="5.8859521">
    <src>00027f2334c1456cb4fd0ed1ac4a67a1</src>
    <name>Cours Raymond Poincar&#233;</name>
    <desc/>
  </wpt>
  <wpt lat="48.4362477" lon="2.1595029">
    <src>000497b167cc44a79d5e65a72376d877</src>
    <name>Rue Elias Robert</name>
    <desc/>
  </wpt>
  <wpt lat="45.3062937" lon="2.8271208">
    <src>000cbfb3608844e68009db3c5ffb44f9</src>
    <name>Place de la Mairie</name>
    <desc>24/7</desc>
  </wpt>
  <wpt lat="44.7287549" lon="5.02352">
    <src>001bca2161ad4e80b8805236641ddc99</src>
    <name>Rue de la Pierre</name>
    <desc>Mo-Su 08:00-20:00</desc>
  </wpt>
  <wpt lat="45.5797151" lon="2.9947863">
    <src>00218c02a5064d9bb5f92c8f5b9e90a8</src>
    <name>Saint Nectaire le Bas Oues</name>
    <desc>Apr-Sep</desc>
  </wpt>
  <wpt lat="47.7992351" lon="4.0880252">
    <src>0027e4fc40154644b489e60231f11524</src>
    <name>Rue des Vergers</name>
    <desc/>
  </wpt>
  <wpt lat="44.5113578" lon="4.3720383">
    <src>002c2c25d7b34701a88266d21e41e956</src>
    <name>Impasse du Bac</name>
    <desc/>
  </wpt>
  <wpt lat="45.7688132" lon="4.7733882">
    <src>0031df3025af46f08f73e33af9b98ada</src>
    <name>Rue Pierre Baronnier</name>
    <desc/>
  </wpt>
  <wpt lat="44.8215543" lon="4.5673507">
    <src>0044f0ba39ba4955802bd8b0c9ba4070</src>
    <name>900 Route de la Glueyre</name>
    <desc/>
  </wpt>
  <wpt lat="45.8922348" lon="6.7107665">
    <src>004a62bce8ea4ab8ac70aabf55e807d8</src>
    <name>Che du Vieux Pont</name>
    <desc/>
  </wpt>
  <wpt lat="45.9735292" lon="4.3263284">
    <src>004d0b1c43ca40b8a21cbd5c97d9880c</src>
    <name>Place de l'Industrie</name>
    <desc/>
  </wpt>
  <wpt lat="44.7612295" lon="5.1536195">
    <src>004f66360a0e4d118fe0b0a61cdaab61</src>
    <name>Ruelle du Puits</name>
    <desc/>
  </wpt>
  <wpt lat="48.8491002" lon="2.4025827">
    <src>005cfca55d954d7d9277f31c09eefa52</src>
    <name>All&#233;e Marie Laurent 1</name>
    <desc/>
  </wpt>
  <wpt lat="44.9946971" lon="5.7760929">
    <src>0066610a5904402fad675332d6cbdb26</src>
    <name>La Fayolle</name>
    <desc/>
  </wpt>
  <wpt lat="48.8347075" lon="2.3410587">
    <src>006762012b5041e69c4d6807d4370573</src>
    <name>Rue M&#233;chain</name>
    <desc/>
  </wpt>
  <wpt lat="43.8685598" lon="4.4389432">
    <src>0068fcbdcfdc46c69331340bff1df361</src>
    <name>Allee Jacqueline Auriol</name>
    <desc/>
  </wpt>
  <wpt lat="46.2343846" lon="4.7113973">
    <src>006f682266e340e69ea901469c711528</src>
    <name>Place du Cellier</name>
    <desc/>
  </wpt>
  <wpt lat="46.9517722" lon="4.6297316">
    <src>0073a3d11d844a26b958de30e2c71231</src>
    <name>Place de l'H&#244;tel de Ville</name>
    <desc/>
  </wpt>
  <wpt lat="45.7835672" lon="3.0120098">
    <src>00924443863a4b848156017264b35e76</src>
    <name>Rue de la Poste</name>
    <desc/>
  </wpt>
  <wpt lat="45.1001562" lon="6.1646605">
    <src>0098faad96b34bd4ba3e27c708c36569</src>
    <name>Adresse inconnue Is&#232;re 2</name>
    <desc/>
  </wpt>
  <wpt lat="45.1552331" lon="5.3206903">
    <src>009adcd910f746468b7f64d8b2d2ea28</src>
    <name>Place Sully</name>
    <desc/>
  </wpt>
  <wpt lat="48.8395113" lon="2.4061466">
    <src>00ac8b0c49a9416885ad590adac4ba32</src>
    <name>Rue Marie Laurencin</name>
    <desc/>
  </wpt>
  <wpt lat="45.7358094" lon="4.8047455">
    <src>00ad8120fd3c4d4f82407b8334e8a3db</src>
    <name>Rue Emile Zeizig</name>
    <desc/>
  </wpt>
  <wpt lat="45.7719324" lon="4.8474415">
    <src>00b03a5512a4434287d76e3e77077427</src>
    <name>Rue Sully</name>
    <desc>Mo-Su 05:00-22:00</desc>
  </wpt>
  <wpt lat="46.3362631" lon="5.1287148">
    <src>00b7ac42012f4ab998907815f8431d3f</src>
    <name>Impasse Vuiton</name>
    <desc/>
  </wpt>
  <wpt lat="43.9621876" lon="2.8880118">
    <src>00b9dfc91416433899bd5b97a243dee5</src>
    <name>Rue de l'Usine Dufeu</name>
    <desc/>
  </wpt>
  <wpt lat="42.8517267" lon="3.0371863">
    <src>00bb01b7024b4c6a9407e3bb793a7c39</src>
    <name>R&#233;sidence Maisons du Soleil</name>
    <desc/>
  </wpt>
  <wpt lat="45.9477019" lon="4.529435">
    <src>00bdcc8e0b2649fbb2c3267f97771f50</src>
    <name>Rue du Stade</name>
    <desc/>
  </wpt>
  <wpt lat="43.5525655" lon="6.943194">
    <src>00be34f5039246d7a0347e8c32a2d770</src>
    <name>Avenue des Anciens Combattants</name>
    <desc/>
  </wpt>
  <wpt lat="43.1801906" lon="5.6831262">
    <src>00cc1aa133b3443eadcd3184ea47f533</src>
    <name>Avenue du Port</name>
    <desc/>
  </wpt>
  <wpt lat="43.6043625" lon="3.9236825">
    <src>00cf12db5b114e1c98891de5093bb1e9</src>
    <name>Boulevard T&#233;l&#233;maque</name>
    <desc/>
  </wpt>
  <wpt lat="46.031805" lon="3.9316465">
    <src>00d7681baf7c4cbba1673b27a52d4f9a</src>
    <name>Impasse du Marechal d'Albon</name>
    <desc/>
  </wpt>
  <wpt lat="48.8835359" lon="2.3335018">
    <src>00e2dc90b75641418a0b76e3548aa7d4</src>
    <name>Boulevard de Clichy 1</name>
    <desc/>
  </wpt>
  <wpt lat="48.7205468" lon="2.2763528">
    <src>00e519f1366846efb34490bcaf8a8b1f</src>
    <name>Impasse de l'Aulnaye Dracourt</name>
    <desc/>
  </wpt>
  <wpt lat="43.9438844" lon="2.4672457">
    <src>00e91c96c20144d38f5158b54ee9b455</src>
    <name>Villeneuve</name>
    <desc/>
  </wpt>
  <wpt lat="50.6032832" lon="3.2733771">
    <src>00f4b73e48d84fd08a4128a52ca28704</src>
    <name>Adresse inconnue Nord 2</name>
    <desc/>
  </wpt>
  <wpt lat="48.8683446" lon="2.3607784">
    <src>00f747ee9dc6462795dc10f782254ab0</src>
    <name>Passage Meslay</name>
    <desc/>
  </wpt>
  <wpt lat="45.0699484" lon="4.8383394">
    <src>00ffeda670184c39a055a12ef4c78671</src>
    <name>Rue Lanterne</name>
    <desc/>
  </wpt>
  <wpt lat="46.102631" lon="6.5979501">
    <src>010087a16a5e4fb7bd6c8b7e1c0f2c84</src>
    <name>Rte de Melan</name>
    <desc/>
  </wpt>
  <wpt lat="45.7511594" lon="3.6079684">
    <src>011018bafc5f4c0897c02f5c58b84a41</src>
    <name>Route de la Prade 1</name>
    <desc/>
  </wpt>
  <wpt lat="45.8229659" lon="5.4197654">
    <src>011027a9aa8549d9828a6b4506eebd58</src>
    <name>La Vallee Bleue 1</name>
    <desc/>
  </wpt>
  <wpt lat="43.5226115" lon="7.0419923">
    <src>0115096ec8e64a84aabffaf9c20888b3</src>
    <name>Adresse inconnue Alpes-Maritimes 2</name>
    <desc/>
  </wpt>
  <wpt lat="48.936978" lon="2.3526338">
    <src>011c74fa9c7f47f2bef76693dbcc2838</src>
    <name>Rue des Chaumettes</name>
    <desc>24/7</desc>
  </wpt>
  <wpt lat="49.5167353" lon="5.3619773">
    <src>011e32a3aa534f02ad174b7ac57c110e</src>
    <name>Rue des Vieux Fours</name>
    <desc/>
  </wpt>
  <wpt lat="43.306614" lon="3.5376674">
    <src>0120e0a5d7ce4b7bb71e0008f566a212</src>
    <name>Avenue des Campings 1</name>
    <desc/>
  </wpt>
  <wpt lat="45.4057906" lon="6.5789261">
    <src>012431b01d4146a4a0d57c92dad84f68</src>
    <name>Altiport de M&#233;ribel 2</name>
    <desc/>
  </wpt>
  <wpt lat="43.1829148" lon="3.0011021">
    <src>0125984bcf1541bb9b17d44b5ccd9ee7</src>
    <name>Rue Parerie</name>
    <desc/>
  </wpt>
  <wpt lat="45.1669198" lon="4.2926729">
    <src>013db14415674c1887caad1021c21421</src>
    <name>Place de la Gare</name>
    <desc/>
  </wpt>
  <wpt lat="44.2699727" lon="5.1271065">
    <src>013fd26c59334967b62e91abd12dde27</src>
    <name>Rue du Quercy</name>
    <desc/>
  </wpt>
  <wpt lat="44.6753098" lon="4.2210544">
    <src>014087fefeef436f859f4b6aeea6cb4c</src>
    <name>Place du Champ de Mars</name>
    <desc/>
  </wpt>
  <wpt lat="47.1062888" lon="6.1459397">
    <src>0143a624a6f64806be17a5ddcefa2946</src>
    <name>Place Gustave Courbet</name>
    <desc/>
  </wpt>
  <wpt lat="45.736941" lon="5.022608">
    <src>0145a20c0df24297bad1c388217d6881</src>
    <name>Rue du 11 Novembre</name>
    <desc/>
  </wpt>
  <wpt lat="44.5670483" lon="2.3663682">
    <src>014bd8c168dc4700a5869ec9bbdc8252</src>
    <name>2 Route de Decazeville</name>
    <desc/>
  </wpt>
  <wpt lat="48.8306412" lon="2.2918306">
    <src>015b3b182a5d4dc5ad9b51badb7cfa05</src>
    <name>Place Am&#233;d&#233;e Gordini 1</name>
    <desc/>
  </wpt>
  <wpt lat="46.6523317" lon="5.6002148">
    <src>015c84c079904071a2048e898f275dcb</src>
    <name>Rue du Saugeois</name>
    <desc/>
  </wpt>
  <wpt lat="44.5879316" lon="4.5261118">
    <src>016b2634c2b1469ca90bef1e29a8e11f</src>
    <name>600 Route de Mirabel 1</name>
    <desc/>
  </wpt>
  <wpt lat="46.4333002" lon="4.4735198">
    <src>016c67b7e1344dbfa2431c7829d2e541</src>
    <name>Route de la Butte</name>
    <desc/>
  </wpt>
  <wpt lat="45.78963" lon="4.7975992">
    <src>016d7c992a4f4c8da0644be0ac459b90</src>
    <name>Rue Victor Schoelcher</name>
    <desc>Mo-Su 05:00-22:00</desc>
  </wpt>
  <wpt lat="48.8365131" lon="2.4043723">
    <src>0171812e3fa34f7387080a78c0e57662</src>
    <name>Villa Jean Godard</name>
    <desc/>
  </wpt>
  <wpt lat="45.3501821" lon="5.5026331">
    <src>0177d64a2546441abe647c8a9c5032fb</src>
    <name>Place de la Lib&#233;ration</name>
    <desc/>
  </wpt>
  <wpt lat="43.169627" lon="2.7076496">
    <src>0179d17183664abfb4ace57a4ec048b4</src>
    <name>Adresse inconnue Aude 2</name>
    <desc/>
  </wpt>
  <wpt lat="45.6091015" lon="6.1087035">
    <src>017e7683ebf0408790e093bdb4dee9d4</src>
    <name>899 Route de la Correrie</name>
    <desc/>
  </wpt>
  <wpt lat="45.827427" lon="3.2424941">
    <src>01836ff3c4604b7aa51416b5c51f0f14</src>
    <name>Route sous les Vignes</name>
    <desc/>
  </wpt>
  <wpt lat="44.1181652" lon="5.1434792">
    <src>018983d157044a18b76484f2c1e820e4</src>
    <name>Rue de l'Eglise 1</name>
    <desc/>
  </wpt>
  <wpt lat="45.855905" lon="6.1464313">
    <src>018c5c0a88db4cdabac9180be661dcf9</src>
    <name>Che du Clos Berthet</name>
    <desc/>
  </wpt>
  <wpt lat="48.6982736" lon="2.1366246">
    <src>019d1c955c624f6f80cf792303b0935e</src>
    <name>Rue de la Croix Grignon</name>
    <desc/>
  </wpt>
  <wpt lat="43.2291338" lon="2.1157808">
    <src>019e374a9b7840fdb1b5a4401707a583</src>
    <name>La Mameree 1</name>
    <desc/>
  </wpt>
  <wpt lat="43.7160323" lon="5.3287955">
    <src>01a0a2e734ec45b381cbf2b0b52493d3</src>
    <name>69 Avenue de Silvacane</name>
    <desc/>
  </wpt>
  <wpt lat="45.7403755" lon="6.3710533">
    <src>01a4ea64ab3040edb4695d9ce8c56e64</src>
    <name>Adresse inconnue Savoie 3</name>
    <desc/>
  </wpt>
  <wpt lat="46.0806322" lon="3.6940885">
    <src>01afd3ccd90841609ac20c1517cb4a0c</src>
    <name>Adresse inconnue Allier 2</name>
    <desc/>
  </wpt>
  <wpt lat="41.9738026" lon="8.9689808">
    <src>01b6af97cbb54cd18faffff7d8483809</src>
    <name>Hlm le Romara</name>
    <desc/>
  </wpt>
  <wpt lat="46.0246286" lon="6.6442531">
    <src>01bf0e027f7540ca8409454752afc59e</src>
    <name>Imp des Sablets</name>
    <desc/>
  </wpt>
  <wpt lat="46.0250294" lon="6.6381452">
    <src>01c0f86415fc45b6945b28cc0a6dcd96</src>
    <name>Pl des Aravis</name>
    <desc/>
  </wpt>
  <wpt lat="45.7592539" lon="4.8210085">
    <src>01c46ff9c07b400b9dafad7dad0ec4f1</src>
    <name>Rue de l'Antiquaille 1</name>
    <desc/>
  </wpt>
  <wpt lat="48.8745947" lon="2.36274">
    <src>01c6eda4f06d4a43883988e5af60ad3f</src>
    <name>Quai de Valmy 1</name>
    <desc>24/7</desc>
  </wpt>
  <wpt lat="45.6740203" lon="5.929635">
    <src>01ca687815de44768672ce5de45f5d4b</src>
    <name>Che des Bugnards</name>
    <desc/>
  </wpt>
  <wpt lat="48.8352147" lon="2.3688184">
    <src>01d2253751c54648804abcae86cf0498</src>
    <name>Parvis Alan Turing</name>
    <desc/>
  </wpt>
  <wpt lat="45.7226064" lon="4.7604605">
    <src>01d68471b7da45d18ffe9d29989ef912</src>
    <name>Route des Pins</name>
    <desc/>
  </wpt>
  <wpt lat="48.8719296" lon="2.3920585">
    <src>01dfdd40e6be44d5a0b94dec51ae92e0</src>
    <name>Rue Emmery</name>
    <desc/>
  </wpt>
  <wpt lat="47.2488894" lon="6.3468645">
    <src>01e50107185348e69568220e3bd4c7e4</src>
    <name>La Grace Dieu</name>
    <desc/>
  </wpt>
  <wpt lat="43.5692199" lon="5.3542628">
    <src>01eed4a9fc15418db6af29b620523363</src>
    <name>Rue du Grand Logis</name>
    <desc/>
  </wpt>
  <wpt lat="44.538255" lon="4.2920988">
    <src>0215b7359b8448e5afb42f687a51cce8</src>
    <name>Chemin de Razet 1</name>
    <desc/>
  </wpt>
  <wpt lat="44.0065126" lon="2.6009091">
    <src>0215e17ab08f43c9a452a307cecdbfb5</src>
    <name>15 Chemin du Pestel</name>
    <desc/>
  </wpt>
  <wpt lat="43.9131022" lon="3.3161141">
    <src>021b03dfb48047f9b91c44c80d5e5e02</src>
    <name>Le Barry 1</name>
    <desc/>
  </wpt>
  <wpt lat="43.1358066" lon="6.0967883">
    <src>021c34dfbd724e569b8b28e008f30550</src>
    <name>Adresse inconnue Var 2</name>
    <desc/>
  </wpt>
  <wpt lat="49.8418619" lon="3.2947057">
    <src>021df3817670436f893a2f9aaf7bc720</src>
    <name>Place du 8 Octobre</name>
    <desc/>
  </wpt>
  <wpt lat="48.9619788" lon="2.8774187">
    <src>02265a8e6a3a433aa1c0c48a2dfe898b</src>
    <name>Place Paul Doumer</name>
    <desc/>
  </wpt>
  <wpt lat="47.4993189" lon="6.8001292">
    <src>022adce250134d09ade2cc5e17c8f6c1</src>
    <name>Centre Commercial des Hexagones</name>
    <desc/>
  </wpt>
  <wpt lat="44.1341667" lon="6.3423017">
    <src>0232cdb8228b4f589c82a26bcc12b1fc</src>
    <name>Pr&#233; Neuf</name>
    <desc/>
  </wpt>
  <wpt lat="44.4520484" lon="5.8420718">
    <src>023eadb32b6548bcb9cf1ed34c32a589</src>
    <name>Adresse inconnue Hautes-Alpes 2</name>
    <desc/>
  </wpt>
  <wpt lat="44.5362485" lon="4.4354236">
    <src>0243d3c8d518428ab3554e9efe8f1594</src>
    <name>Chemin de l'Auzon</name>
    <desc/>
  </wpt>
  <wpt lat="43.9131487" lon="6.4062115">
    <src>0246432f1cf94488bc8db5e36f60653a</src>
    <name>Les Ferais</name>
    <desc/>
  </wpt>
  <wpt lat="45.7668283" lon="4.9273678">
    <src>024780c5eb944100b9f02953ed9ddbf6</src>
    <name>Rue des Droits de l'Homme</name>
    <desc/>
  </wpt>
  <wpt lat="48.074678" lon="7.3591485">
    <src>02589f74bd054a81b87e3257ed4e66b3</src>
    <name>Rue des &#201;coles 1</name>
    <desc/>
  </wpt>
  <wpt lat="50.6874749" lon="2.8832869">
    <src>025d693e34f946adaeed9df7bc8ab46d</src>
    <name>Voie Parking du Centre</name>
    <desc/>
  </wpt>
  <wpt lat="49.436422" lon="2.878763">
    <src>0266b7bd2cf542bb95cec3f3060b6bf1</src>
    <name>Rue de l'Aisne</name>
    <desc/>
  </wpt>
  <wpt lat="48.8825922" lon="2.2500297">
    <src>026dd5a63e55401d88583bea1ebc5ad2</src>
    <name>Boulevard du G&#233;n&#233;ral Koenig</name>
    <desc/>
  </wpt>
  <wpt lat="46.2016262" lon="6.246836">
    <src>028122c18d5a40139669fd0b863357df</src>
    <name>Rue des Enfants du Monde</name>
    <desc/>
  </wpt>
  <wpt lat="48.4095252" lon="2.6945944">
    <src>02821f9b0fc847d0b144e364713141d1</src>
    <name>Rue Victor Hugo 1</name>
    <desc/>
  </wpt>
  <wpt lat="48.7093509" lon="2.334524">
    <src>028b4d22ca6e41ecb758c2880374d52e</src>
    <name>Le Fond de Morangis</name>
    <desc/>
  </wpt>
  <wpt lat="42.5046609" lon="3.1227181">
    <src>02935f335e5742c4bc15c500f2d23516</src>
    <name>1 Ld Paulilles</name>
    <desc/>
  </wpt>
  <wpt lat="45.0466814" lon="4.4583548">
    <src>02aeda553d544f109380f5d5c8cc0bea</src>
    <name>Grand-Rue</name>
    <desc/>
  </wpt>
  <wpt lat="44.6009846" lon="4.3865088">
    <src>02b8ba5702ab43aeba0d55f59595806a</src>
    <name>Place du Village</name>
    <desc/>
  </wpt>
  <wpt lat="48.836202" lon="2.3276082">
    <src>02b90a1ed5a745fd8179eff1e5fed385</src>
    <name>Rue Roger</name>
    <desc/>
  </wpt>
  <wpt lat="44.1628511" lon="5.0040504">
    <src>02c04f35c05b41ee8d26cd4f50389cf7</src>
    <name>Rue du Portail</name>
    <desc/>
  </wpt>
  <wpt lat="48.8240641" lon="2.3530964">
    <src>02c0d9029d124f0baf2c55a5728dbddc</src>
    <name>Place de l'Abb&#233; Georges H&#233;nocque</name>
    <desc/>
  </wpt>
  <wpt lat="48.8318426" lon="2.4902989">
    <src>02ca1710d01444f380f9521c20276824</src>
    <name>Rue Nazare</name>
    <desc/>
  </wpt>
  <wpt lat="47.1783872" lon="3.0165978">
    <src>02d856dd82414012956cf415831dc6aa</src>
    <name>Cour du Ch&#226;teau</name>
    <desc/>
  </wpt>
  <wpt lat="45.6140104" lon="4.80045">
    <src>02de350e790144c49d59bf58eecfebea</src>
    <name>Rue Adrien Dutartre 1</name>
    <desc/>
  </wpt>
  <wpt lat="46.0379297" lon="4.4761514">
    <src>02e6aed7bfca4ab9b0b70074746b5509</src>
    <name>Rue du Commerce</name>
    <desc/>
  </wpt>
  <wpt lat="45.8836039" lon="6.0903511">
    <src>02fa643eb90646dcb258f30b2ec2f949</src>
    <name>Av des Neigeos</name>
    <desc/>
  </wpt>
  <wpt lat="43.8239408" lon="5.3071326">
    <src>030b834083284c8ea12014abe27ded11</src>
    <name>Avenue de la Gare</name>
    <desc>Mo-Su 08:00-22:00</desc>
  </wpt>
  <wpt lat="48.1825075" lon="2.7551745">
    <src>030d41e31da74b3fbbf2ab29854dd49e</src>
    <name>Route d'Egreville</name>
    <desc/>
  </wpt>
  <wpt lat="45.7802096" lon="4.8087375">
    <src>030efd47736c4961b5f904ea200c9359</src>
    <name>Quai de la Gare d'Eau</name>
    <desc>Mo-Su 05:00-22:00</desc>
  </wpt>
  <wpt lat="46.0353387" lon="5.7008756">
    <src>031717d3440b48fb82ad8297e79e4301</src>
    <name>Plans d'Hotonnes - Plateau de Retord</name>
    <desc/>
  </wpt>
  <wpt lat="43.2757008" lon="3.5132749">
    <src>031720c7118f416fa4833968775ce0ec</src>
    <name>Allee de la Conque</name>
    <desc/>
  </wpt>
  <wpt lat="44.6197606" lon="4.3908965">
    <src>032975a15cc246058ff23295d599e53e</src>
    <name>Place de la R&#233;publique</name>
    <desc/>
  </wpt>
  <wpt lat="45.5505167" lon="6.8106423">
    <src>032fc055da654f6c9506204437448fcf</src>
    <name>Les Arcs / Peisey-Vallandry</name>
    <desc/>
  </wpt>
  <wpt lat="42.082158" lon="8.7496951">
    <src>033313cf2f714b66a9392f9db89c83d1</src>
    <name>2354 Strada di u Lazzu 1</name>
    <desc/>
  </wpt>
  <wpt lat="43.6118028" lon="3.8619243">
    <src>033dda34da6c412eb2f9472d7b0ffea5</src>
    <name>Rue Marc</name>
    <desc>24/7; 00:00-24:00</desc>
  </wpt>
  <wpt lat="42.3501058" lon="8.6141458">
    <src>033e81f6c456443ea5e6541bac59145d</src>
    <name>Rena</name>
    <desc/>
  </wpt>
  <wpt lat="43.6651671" lon="7.1509908">
    <src>035996ed6909456f8f6bad38cb967cfd</src>
    <name>Allee des Platanes</name>
    <desc/>
  </wpt>
  <wpt lat="45.7753428" lon="4.834752">
    <src>035b9caf4a4a48beb68ae3e1c7c67905</src>
    <name>Rue d'Austerlitz</name>
    <desc>Mo-Su 06:00-02:00</desc>
  </wpt>
  <wpt lat="47.923624" lon="7.0297628">
    <src>035bcc3ba523404d9647d5b5fff67baa</src>
    <name>Siebach</name>
    <desc/>
  </wpt>
  <wpt lat="48.607439" lon="2.294132">
    <src>0361627410d2471f8029624688b1a9f4</src>
    <name>Avenue Claude L&#233;vi-Strauss 1</name>
    <desc/>
  </wpt>
  <wpt lat="43.6059983" lon="6.3824214">
    <src>03660d14141d48c384a108cf6fc97909</src>
    <name>Boulevard Georges Clemenceau</name>
    <desc/>
  </wpt>
  <wpt lat="45.6514452" lon="6.5813456">
    <src>03672ec722084155a3b36ffd91997aa1</src>
    <name>Rte de Saint Guerin</name>
    <desc/>
  </wpt>
  <wpt lat="48.8297196" lon="2.2405072">
    <src>03704c6a1fe84f6da6376614ea1e2b52</src>
    <name>Allee Emile Pouget</name>
    <desc/>
  </wpt>
  <wpt lat="44.5206019" lon="3.4959985">
    <src>03926d442f244afa8414463c3676cacb</src>
    <name>Rue du Faubourg Montbel</name>
    <desc/>
  </wpt>
  <wpt lat="45.7326319" lon="4.8257892">
    <src>039cdfb9bda64772be5716fe0f4f1a92</src>
    <name>Place Docteurs Charles et Christophe M&#233;rieux</name>
    <desc>24/7</desc>
  </wpt>
  <wpt lat="45.737424" lon="4.656214">
    <src>03a094f3fdf7440691c515e8c7cb63ba</src>
    <name>Boulevard des Lavandi&#232;res</name>
    <desc/>
  </wpt>
  <wpt lat="48.8319874" lon="2.3777146">
    <src>03a29c07f83d4759b69ff467165df64b</src>
    <name>Rue Jean Anouilh</name>
    <desc/>
  </wpt>
  <wpt lat="50.6007601" lon="3.0204749">
    <src>03a5ab33b9d745a88ddb3d0661ad4ddd</src>
    <name>Chemin de Flesquieres</name>
    <desc/>
  </wpt>
  <wpt lat="46.4573242" lon="4.1271841">
    <src>03ad588dea4646159a6e2e7c43f39be6</src>
    <name>Rue du 11 Novembre</name>
    <desc/>
  </wpt>
  <wpt lat="45.5030863" lon="6.0434241">
    <src>03b021168a7141d0a6aac69a39342135</src>
    <name>Mte de Moretel</name>
    <desc/>
  </wpt>
  <wpt lat="44.5533688" lon="2.6720527">
    <src>03c0dd54d51a49d89d09fde6bd800529</src>
    <name>Rue Basse</name>
    <desc/>
  </wpt>
  <wpt lat="48.8035486" lon="2.122518">
    <src>03d75ad093d94331afeeb6ec9bb7aace</src>
    <name>Rue Saint Julien 1</name>
    <desc/>
  </wpt>
  <wpt lat="48.8514134" lon="2.4113072">
    <src>03de836edaa14752a397117d021b19b5</src>
    <name>Rue Paganini</name>
    <desc/>
  </wpt>
  <wpt lat="45.7343459" lon="4.8538702">
    <src>03f77cfd45e14c7ea30e043000800f35</src>
    <name>Rue Colonel Arnaud Beltrame</name>
    <desc>24/7</desc>
  </wpt>
  <wpt lat="47.6216941" lon="7.2350677">
    <src>040d029a50834cdab7c5eb2a3c0a133b</src>
    <name>Place de la Halle aux Bles</name>
    <desc/>
  </wpt>
  <wpt lat="42.5430268" lon="3.05205">
    <src>04139dd97151480aa3a6bbda1b559979</src>
    <name>Rue des Matelots 1</name>
    <desc/>
  </wpt>
  <wpt lat="44.9346954" lon="4.8919963">
    <src>041781b8e3ee487ba0c079df2b9ae294</src>
    <name>Rue des Musiques</name>
    <desc/>
  </wpt>
  <wpt lat="44.5148109" lon="4.7835102">
    <src>0418fec96c5c4bdaae263f4ef358a22a</src>
    <name>Impasse de Bruyeres 1</name>
    <desc/>
  </wpt>
  <wpt lat="44.1647661" lon="4.8773813">
    <src>042960dbd18c40e29b2ba9bfad53ee2c</src>
    <name>Allee des Sports</name>
    <desc/>
  </wpt>
  <wpt lat="45.2605418" lon="5.1438249">
    <src>042ab4cfa5784a10b065e3d649864d59</src>
    <name>Route de Perouset</name>
    <desc/>
  </wpt>
  <wpt lat="47.610344" lon="3.1762095">
    <src>0431237bab31412fa899cbab8e82366d</src>
    <name>Place de la Mairie</name>
    <desc/>
  </wpt>
  <wpt lat="48.1632278" lon="7.3168746">
    <src>04359a5c2d8f4511814ed2f5fc286566</src>
    <name>Route du Vin 1</name>
    <desc/>
  </wpt>
  <wpt lat="46.6202441" lon="5.3736399">
    <src>04383df6d1164b419f1b48ff8db6be6e</src>
    <name>Adresse inconnue Sa&#244;ne-et-Loire 3</name>
    <desc/>
  </wpt>
  <wpt lat="44.4774663" lon="6.5656796">
    <src>043b513267b24aa89be6411d36d0b767</src>
    <name>Les Orres</name>
    <desc/>
  </wpt>
  <wpt lat="47.9810896" lon="3.3983863">
    <src>04490cabda854d8eba52f9f452824e22</src>
    <name>Quai du 1er Dragons</name>
    <desc/>
  </wpt>
  <wpt lat="43.6816879" lon="7.2311914">
    <src>044aff89eae1416396cf7b9994893eb9</src>
    <name>Avenue de Carras</name>
    <desc/>
  </wpt>
  <wpt lat="45.2748221" lon="6.9223195">
    <src>045acb12206243c0afd71ba33e06afff</src>
    <name>Val Cenis</name>
    <desc/>
  </wpt>
  <wpt lat="48.8399066" lon="2.3277394">
    <src>045b4b4659e84f49ab73ca57f384a131</src>
    <name>Boulevard Edgar Quinet 1</name>
    <desc/>
  </wpt>
  <wpt lat="44.9424135" lon="4.9001321">
    <src>045c6c6438ff4b9a90fe4c3553198e17</src>
    <name>Rue Roger Salengro</name>
    <desc/>
  </wpt>
  <wpt lat="44.5506549" lon="4.4130698">
    <src>045cf1439c284decabb6fd3cdc2a25fb</src>
    <name>Rue le Chareyrou</name>
    <desc/>
  </wpt>
  <wpt lat="43.2753799" lon="2.7082003">
    <src>04634257f0684edbade5533021d277e0</src>
    <name>R&#233;sidence les Hauts du Lac 1</name>
    <desc/>
  </wpt>
  <wpt lat="44.0936398" lon="2.6977504">
    <src>0467d3e61f324d69b3922d5e641ae64a</src>
    <name>Rue Chante Brise</name>
    <desc/>
  </wpt>
  <wpt lat="42.7155404" lon="2.6077894">
    <src>046935b6a6bf460dbe5fbb37319e88b4</src>
    <name>Als Clots</name>
    <desc/>
  </wpt>
  <wpt lat="46.3342721" lon="5.1851161">
    <src>047e25afea2a4b4ca30014189ee47bed</src>
    <name>Place de l'Ecole</name>
    <desc/>
  </wpt>
  <wpt lat="49.3800486" lon="3.3272047">
    <src>04a0f25c44fc47afb8966d711d76fe84</src>
    <name>Rue Charles Desboves</name>
    <desc/>
  </wpt>
  <wpt lat="45.4774418" lon="3.1856504">
    <src>04a2d0b88fac4cf989187391af2641fd</src>
    <name>Route de Clauroux</name>
    <desc/>
  </wpt>
  <wpt lat="43.3009615" lon="3.5290142">
    <src>04addb7cbbfe49c3990287d28ffdfe38</src>
    <name>Impasse du Bagnas</name>
    <desc/>
  </wpt>
  <wpt lat="42.7068171" lon="3.0361339">
    <src>04b2d6974da448c09f3e2bdefc0b7f04</src>
    <name>Avenue du General Delestrain 1</name>
    <desc/>
  </wpt>
  <wpt lat="41.718567" lon="9.1286681">
    <src>04b411d0664142f2a9c45ad25c63057e</src>
    <name>Adresse inconnue Corse-du-Sud 3</name>
    <desc/>
  </wpt>
  <wpt lat="48.3070952" lon="6.131393">
    <src>04b4bb34923843e380bbb0ce0b5429d3</src>
    <name>Rue du Souvenir Fran&#231;ais</name>
    <desc/>
  </wpt>
  <wpt lat="50.2781522" lon="3.2920396">
    <src>04b92e9ff8c84ce7851b61bb17b4478b</src>
    <name>Rue de Bouchain</name>
    <desc/>
  </wpt>
  <wpt lat="48.7097993" lon="2.2364082">
    <src>04b95eac388844ad9ce86753b3bca9fe</src>
    <name>Chemin de la Mare &#224;&#160; Caron</name>
    <desc/>
  </wpt>
  <wpt lat="49.1579407" lon="5.3765063">
    <src>04bff74ceb59407ea27f702bbb5bf601</src>
    <name>Avenue du Soldat Inconnu</name>
    <desc/>
  </wpt>
  <wpt lat="48.4908627" lon="6.0941867">
    <src>04c47610a64445fda8e83554d29f2462</src>
    <name>Rue des Moutoilles d'Argent</name>
    <desc/>
  </wpt>
  <wpt lat="45.8401336" lon="5.000728">
    <src>04cce70bf8ed4fc687bf8152adfeb10c</src>
    <name>Impasse du Piriez</name>
    <desc/>
  </wpt>
  <wpt lat="45.6076393" lon="4.6459092">
    <src>04cd5cad9532431a8d7aff0780e1769e</src>
    <name>Adresse inconnue Rh&#244;ne 2</name>
    <desc/>
  </wpt>
  <wpt lat="46.2864921" lon="2.650821">
    <src>04cf1615b29241599e1fb139f33d441d</src>
    <name>Rue des Fleurs</name>
    <desc>08:00-22:00</desc>
  </wpt>
  <wpt lat="50.3933823" lon="3.1139611">
    <src>04cf2b1db56e4a7e9f78efd62e1d5f8c</src>
    <name>Rue de la Plaine</name>
    <desc/>
  </wpt>
  <wpt lat="43.5473643" lon="3.7912827">
    <src>04d23f0b220f466ab352bff0ee8ab34e</src>
    <name>Chemin de Villeneuve</name>
    <desc/>
  </wpt>
  <wpt lat="48.8088694" lon="2.2191008">
    <src>04d27a9fc0544ca5a918108e935a4dcd</src>
    <name>Route Foresti&#232;re du Pav&#233; de Meudon 1</name>
    <desc/>
  </wpt>
  <wpt lat="44.4638979" lon="2.9455585">
    <src>04e5a0aedd6f4fa4af3b3fbddafba461</src>
    <name>Espace Louis Marcillac</name>
    <desc/>
  </wpt>
  <wpt lat="48.636448" lon="2.1476369">
    <src>04ec44821d85440e9d00903ede41444a</src>
    <name>Autoroute a 10 1</name>
    <desc/>
  </wpt>
  <wpt lat="45.7854999" lon="4.8559873">
    <src>04f4003a7bdc4ca0bfb571406ee6ca6e</src>
    <name>Quai Charles de Gaulle</name>
    <desc/>
  </wpt>
  <wpt lat="48.824127" lon="3.0920181">
    <src>04f463a069864c46aaab0cca3f94c126</src>
    <name>Rue des Templiers 1</name>
    <desc/>
  </wpt>
  <wpt lat="45.8988423" lon="2.7147898">
    <src>05031c4f0c18460fb90b03330c6b2fcb</src>
    <name>Le Bourg</name>
    <desc/>
  </wpt>
  <wpt lat="46.0095144" lon="3.8881735">
    <src>0516dceaf8674fcd90ae15e36d661cf7</src>
    <name>Route de la Croix Tr&#233;vingt</name>
    <desc/>
  </wpt>
  <wpt lat="45.57643" lon="6.7352146">
    <src>05239da4a9094d388de17f2b6d0fe091</src>
    <name>Route du Perrey</name>
    <desc/>
  </wpt>
  <wpt lat="44.9212455" lon="2.837684">
    <src>0527853e51e04c4889ffba5717b3dfcf</src>
    <name>Place de la Fontaine</name>
    <desc/>
  </wpt>
  <wpt lat="45.5260922" lon="6.6732894">
    <src>0528f002ce4e4582976e80a26486278c</src>
    <name>La Plagne</name>
    <desc/>
  </wpt>
  <wpt lat="44.7637237" lon="4.915482">
    <src>05300ad143824207ad4e91dcccff0bda</src>
    <name>Rue du 1er Syndicat</name>
    <desc/>
  </wpt>
  <wpt lat="45.2731682" lon="3.9701605">
    <src>0539f6c0ded6498995fa35a773e3579b</src>
    <name>Saint Andre</name>
    <desc/>
  </wpt>
  <wpt lat="43.6281437" lon="2.4970288">
    <src>054260a46c714e2fb02143cfc204795a</src>
    <name>Rue du Comte Roland</name>
    <desc/>
  </wpt>
  <wpt lat="46.4918524" lon="4.6821188">
    <src>054af6530c4c446da08618ac61e51b7c</src>
    <name>Rue de la Gare</name>
    <desc/>
  </wpt>
  <wpt lat="45.9421042" lon="6.4296564">
    <src>055732d87a9e49fd9f68743eb63da27e</src>
    <name>Rte de la Patinoire 1</name>
    <desc/>
  </wpt>
  <wpt lat="45.2107803" lon="6.3380578">
    <src>0561a0d9e3804f03b4968285c3e385cd</src>
    <name>Albiez-Montrond</name>
    <desc/>
  </wpt>
  <wpt lat="51.0343422" lon="2.3874459">
    <src>056afb2a0d8146368b78bbb9b2b4f93d</src>
    <name>Rue Alphonse Daudet</name>
    <desc/>
  </wpt>
  <wpt lat="45.9266805" lon="4.6911181">
    <src>0579965cd57149e9857bfc0d429c59c8</src>
    <name>Place de l'Eglise</name>
    <desc/>
  </wpt>
  <wpt lat="44.2360757" lon="4.1706382">
    <src>0579e5c546494f74b4a9effb0d7655d0</src>
    <name>Serre Manie</name>
    <desc/>
  </wpt>
  <wpt lat="44.9309019" lon="2.4448407">
    <src>0583f9046ea34f80bded0634d2772502</src>
    <name>Rue de la Coste</name>
    <desc/>
  </wpt>
  <wpt lat="45.7169249" lon="6.5742018">
    <src>058d3ac3b95a4757897a547c41e1525d</src>
    <name>Pl de l'Eglise</name>
    <desc/>
  </wpt>
  <wpt lat="45.7465243" lon="6.4214798">
    <src>058de35713de49708f837fe9fe4d3240</src>
    <name>Pl du Val d'Arly</name>
    <desc/>
  </wpt>
  <wpt lat="46.3022457" lon="4.8330208">
    <src>05a5977f4893415593fc85eba9344f49</src>
    <name>Rue Montrevel</name>
    <desc/>
  </wpt>
  <wpt lat="43.6997827" lon="7.1177602">
    <src>05a925a0497d4566ab4d11e4c371112c</src>
    <name>Chemin Trious</name>
    <desc/>
  </wpt>
  <wpt lat="44.8876315" lon="3.8814311">
    <src>05b17db87e6c46fd9bd72a2ef208ad2a</src>
    <name>Lieu Dit Ussel</name>
    <desc/>
  </wpt>
  <wpt lat="48.8316492" lon="2.2999377">
    <src>05bc56fba3924d16ac89fec88e3d5702</src>
    <name>Place Jacques Marette 1</name>
    <desc/>
  </wpt>
  <wpt lat="48.8915453" lon="2.3315758">
    <src>05cc63ef01fb47ed96aacd51550059ca</src>
    <name>Rue Carpeaux</name>
    <desc/>
  </wpt>
  <wpt lat="45.6752285" lon="3.63625">
    <src>05d52373f3994cebb36941f831361a51</src>
    <name>Ruelle Sainte-Barbe 1</name>
    <desc/>
  </wpt>
  <wpt lat="48.0262127" lon="3.3104346">
    <src>05d6133d057049b4b6dd46d614eaf5a7</src>
    <name>Les Iles Pass de Villevall</name>
    <desc/>
  </wpt>
  <wpt lat="43.6339052" lon="3.8697797">
    <src>05dbcea988ba45bc8717c7c785f799b5</src>
    <name>Rue de la Chenaie 1</name>
    <desc/>
  </wpt>
  <wpt lat="43.7037509" lon="4.118999">
    <src>05f3ba49f3684ff4a47f93f3fa5762c4</src>
    <name>Muraillasses et Mas Gauthi 1</name>
    <desc/>
  </wpt>
  <wpt lat="49.5927651" lon="4.5040458">
    <src>05f59714ed5d4b1697988ec7e0511757</src>
    <name>La Come</name>
    <desc/>
  </wpt>
  <wpt lat="46.1221056" lon="4.3068002">
    <src>060022c7629f4c89bc854613687152a7</src>
    <name>Rue de la Fontaine</name>
    <desc/>
  </wpt>
  <wpt lat="45.7599387" lon="4.8455927">
    <src>060073f1dce1496088410648bd7cc5d7</src>
    <name>Rue de la Part-Dieu</name>
    <desc>Mo-Su 06:00-02:00</desc>
  </wpt>
  <wpt lat="43.607394" lon="2.7809889">
    <src>0613051dc72043c0a05031cafd3841db</src>
    <name>553 Chemin du Pioch 1</name>
    <desc/>
  </wpt>
  <wpt lat="43.7664226" lon="7.4842712">
    <src>0616f53fe44840059bf82773dd45a3a8</src>
    <name>Rue Francois Ratto</name>
    <desc/>
  </wpt>
  <wpt lat="45.7474741" lon="4.5247176">
    <src>0619ab4ab93045a7b13a7c9aed760430</src>
    <name>Place de la Mairie</name>
    <desc/>
  </wpt>
  <wpt lat="43.1378833" lon="6.3715417">
    <src>061c0c07b80448f180ca6c34b7509003</src>
    <name>Quai des Pecheurs</name>
    <desc/>
  </wpt>
  <wpt lat="44.0686424" lon="3.9748742">
    <src>06256d7564a04068abb62af245a3e5a6</src>
    <name>Chemin de Recoulin 1</name>
    <desc/>
  </wpt>
  <wpt lat="45.5443985" lon="4.4867643">
    <src>062c378444c4477488674de58f6137ae</src>
    <name>Place de l'Eglise</name>
    <desc/>
  </wpt>
  <wpt lat="43.5708976" lon="3.9517109">
    <src>0634e53f3ebc4fe69a12b89e6c2a4a85</src>
    <name>Rue des Tamarins 1</name>
    <desc/>
  </wpt>
  <wpt lat="42.559451" lon="3.0464512">
    <src>063a5a82629e42109d1494ff57f42f4b</src>
    <name>Rue de la Salanque</name>
    <desc/>
  </wpt>
  <wpt lat="44.3662663" lon="4.5341845">
    <src>0646f15ecd2140e7b656248f9c60c5b5</src>
    <name>Place de la Mairie</name>
    <desc/>
  </wpt>
  <wpt lat="46.3346413" lon="2.5596855">
    <src>064e3be0474747c5af3efdcf18aadd0f</src>
    <name>La Baye</name>
    <desc/>
  </wpt>
  <wpt lat="45.7584344" lon="6.5364034">
    <src>0650723f29e041b494c5d1417ae7eee7</src>
    <name>Pl Jean Berthod</name>
    <desc/>
  </wpt>
  <wpt lat="46.5669517" lon="4.9066813">
    <src>0650bbafe4194006b32bab7eb5c66243</src>
    <name>Avenue Gambetta 1</name>
    <desc/>
  </wpt>
  <wpt lat="48.8354114" lon="2.2415707">
    <src>0651cdc0254448af8bc73aac3ae2d48c</src>
    <name>Rue Georges Sorel 1</name>
    <desc/>
  </wpt>
  <wpt lat="41.6375312" lon="9.3472195">
    <src>065866d13cff4c419ea6d3701c7eef4c</src>
    <name>Residence San Cipriano</name>
    <desc/>
  </wpt>
  <wpt lat="43.793716" lon="7.1896092">
    <src>065da3a8f47a4d3eb417a0776f770bc3</src>
    <name>Chemin de l'Hubac</name>
    <desc/>
  </wpt>
  <wpt lat="44.5148966" lon="5.2138194">
    <src>0676a135ef094fc08dd3da4cd7200a9c</src>
    <name>Route de Nyons</name>
    <desc/>
  </wpt>
  <wpt lat="43.9361918" lon="5.7661662">
    <src>067de4bcfa97434d8d7a1013676cc9f0</src>
    <name>Rue du Barri</name>
    <desc/>
  </wpt>
  <wpt lat="45.1539768" lon="5.7496605">
    <src>0684e684777f437fa5bf47e3eeaf47f3</src>
    <name>Rue Mozart</name>
    <desc/>
  </wpt>
  <wpt lat="48.8539073" lon="2.4012043">
    <src>0685f828d76742d6954a78493f44d463</src>
    <name>Rue des Haies</name>
    <desc/>
  </wpt>
  <wpt lat="46.0214991" lon="6.6716975">
    <src>068e1ba5e3ae4f46982127f299af537f</src>
    <name>Rte de Flaine</name>
    <desc/>
  </wpt>
  <wpt lat="46.555617" lon="4.8235168">
    <src>069a9c68d4eb463faecaa78fa65e15c7</src>
    <name>Sentier du Cloux</name>
    <desc/>
  </wpt>
  <wpt lat="44.1344" lon="4.798906">
    <src>06a4cc9e3579464baada995e2149c3da</src>
    <name>All&#233;e Ambroise Croizat</name>
    <desc/>
  </wpt>
  <wpt lat="44.3626935" lon="2.5799542">
    <src>06a77fde068c4798b1b6bbfeb257d808</src>
    <name>Rue de Pigue</name>
    <desc/>
  </wpt>
  <wpt lat="48.8327062" lon="2.3968887">
    <src>06b114c10c9345e091cc1e2e297d7487</src>
    <name>Rue Th&#233;odore-Hamont</name>
    <desc/>
  </wpt>
  <wpt lat="45.7137993" lon="4.8069865">
    <src>06b44b59c51e41b4b0dadbe20128fcff</src>
    <name>Rue Etienne Dolet 1</name>
    <desc/>
  </wpt>
  <wpt lat="48.688401" lon="6.1659443">
    <src>06b77595937f4ac1a3ab47f01be3a656</src>
    <name>Impasse de Saint-Lambert</name>
    <desc/>
  </wpt>
  <wpt lat="47.0321851" lon="5.7781956">
    <src>06c5fea4a302434eb1af840e7489256e</src>
    <name>Grande Rue 1</name>
    <desc/>
  </wpt>
  <wpt lat="45.7993291" lon="4.940278">
    <src>06c7076a22d5488485d7bfe0d30e3547</src>
    <name>Chemin de la Bletta 1</name>
    <desc/>
  </wpt>
  <wpt lat="49.5191636" lon="3.3240014">
    <src>06d048cd8c63474caf650ff58c03e057</src>
    <name>Rue du Gouverneur</name>
    <desc/>
  </wpt>
  <wpt lat="42.7078156" lon="3.0336692">
    <src>06d48e67f69d494491b0799f3727157e</src>
    <name>La Crouste Sud 1</name>
    <desc/>
  </wpt>
  <wpt lat="48.1996919" lon="3.282318">
    <src>06d4d0deef4e424b8d003fdc60a2fae7</src>
    <name>Place Jean Jaur&#233;s 1</name>
    <desc/>
  </wpt>
  <wpt lat="45.1922387" lon="5.7385109">
    <src>06f1e37581e1436ea7a2264305c17ef5</src>
    <name>Avenue Saint Roch</name>
    <desc/>
  </wpt>
  <wpt lat="45.2708216" lon="4.6680656">
    <src>06f2d960b0014cd6ae3057ad4856031b</src>
    <name>Rue du Clocher</name>
    <desc/>
  </wpt>
  <wpt lat="43.9424146" lon="6.1701769">
    <src>06f384e1e7c347e1902054ed0052690f</src>
    <name>Place Pierre Foray</name>
    <desc/>
  </wpt>
  <wpt lat="45.5726407" lon="2.8089359">
    <src>06f661704abe4e96a360f09732a66c8d</src>
    <name>All&#233;e Georges Lagaye 1</name>
    <desc/>
  </wpt>
  <wpt lat="44.4217331" lon="3.0190951">
    <src>06fe9cd993d244db9aacda812224b489</src>
    <name>Lotissement Miege Sole</name>
    <desc/>
  </wpt>
  <wpt lat="46.3370535" lon="5.1306765">
    <src>07076ae7c27c43f08afe760323c8ac55</src>
    <name>All&#233;e des Acacias</name>
    <desc/>
  </wpt>
  <wpt lat="48.6933687" lon="2.4036065">
    <src>0707d74a60584331b0e1d8c298ddd2b4</src>
    <name>All&#233;e de l'Etang</name>
    <desc/>
  </wpt>
  <wpt lat="42.2411023" lon="9.4410567">
    <src>070c56095b7a4c508b47930484cef10b</src>
    <name>Adresse inconnue Haute-Corse 2</name>
    <desc/>
  </wpt>
  <wpt lat="48.6225243" lon="2.1244256">
    <src>0711de2fc4d94aaf9be4d721613738d2</src>
    <name>Rue Jacqueline de Trie</name>
    <desc/>
  </wpt>
  <wpt lat="46.0320666" lon="4.0789594">
    <src>07143f8b179d4b61ae1739fa9ce48bfc</src>
    <name>Place Aristide Briand</name>
    <desc/>
  </wpt>
  <wpt lat="45.6948089" lon="4.8756654">
    <src>0714ac12b1f04fc0ab48c74bf969da88</src>
    <name>Rue Pr&#233;sident Edouard Herriot</name>
    <desc/>
  </wpt>
  <wpt lat="48.6739638" lon="2.3491423">
    <src>073643911ac24557ae1c5168c42c7d0a</src>
    <name>Rue de la Martiniere</name>
    <desc/>
  </wpt>
  <wpt lat="46.9093206" lon="4.7525578">
    <src>073aaf3ff6644deca9b83ff7dd824ebb</src>
    <name>Rue Louis Gourat</name>
    <desc/>
  </wpt>
  <wpt lat="45.9878368" lon="4.625096">
    <src>073e6cb698ca47eca9028fee23c57eda</src>
    <name>Place du 8 Mai 1945</name>
    <desc/>
  </wpt>
  <wpt lat="48.8413053" lon="2.3562173">
    <src>0748fa9780e94e9d8366fe7df1e0b733</src>
    <name>Rue Geoffroy-Saint-Hilaire</name>
    <desc/>
  </wpt>
  <wpt lat="44.4717978" lon="2.0769444">
    <src>074bd990e4844d43b310399623e17f4f</src>
    <name>Impasse de la Mairie</name>
    <desc/>
  </wpt>
  <wpt lat="42.6403301" lon="2.8716719">
    <src>074c25686204458281355276c2437957</src>
    <name>Impasse los Clouzals</name>
    <desc/>
  </wpt>
  <wpt lat="45.0430095" lon="6.334424">
    <src>074dc9fb3bf444baa3fc32bf3e1e3f8d</src>
    <name>Rue St Martin</name>
    <desc/>
  </wpt>
  <wpt lat="43.6133315" lon="4.0093969">
    <src>0750e34d8c0f40d0b5f9810292b8eeb7</src>
    <name>Impasse Saint Saens</name>
    <desc/>
  </wpt>
  <wpt lat="50.4864751" lon="2.5258797">
    <src>0763ef5d22a449ae89465f0e1872af76</src>
    <name>Rue de Belle Vue</name>
    <desc/>
  </wpt>
  <wpt lat="44.5527231" lon="4.6856491">
    <src>076a4b84467845de84f7f8c86898c951</src>
    <name>Impasse Pierre Bouton</name>
    <desc/>
  </wpt>
  <wpt lat="45.0458469" lon="3.885848">
    <src>077b100f889b4a8ca4b0debfe32c98bf</src>
    <name>Rue Saint Georges</name>
    <desc/>
  </wpt>
  <wpt lat="45.5960481" lon="5.2988053">
    <src>077c6138143e4be280201503bda94932</src>
    <name>Impasse de Rosi&#232;re</name>
    <desc/>
  </wpt>
  <wpt lat="45.1743783" lon="6.4930674">
    <src>0792505953884753ac4fbe9cde87273e</src>
    <name>Galibier Thabor</name>
    <desc/>
  </wpt>
  <wpt lat="45.0558706" lon="4.3903843">
    <src>07a7aba78aee4041a1dabd3e3686e44a</src>
    <name>Adresse inconnue Ard&#232;che 3</name>
    <desc/>
  </wpt>
  <wpt lat="48.8458131" lon="2.255987">
    <src>07aee1d1b68b4c2c89e8d42ac151aeac</src>
    <name>Place de la Porte Molitor</name>
    <desc>6:00-22:00</desc>
  </wpt>
  <wpt lat="47.2305793" lon="4.9055766">
    <src>07b0a493e3c64c3c9e1c8e2fca58adc8</src>
    <name>Place des Tilleuls</name>
    <desc/>
  </wpt>
  <wpt lat="47.0633817" lon="2.3982699">
    <src>07b1de36d1684d85a354f3f1d72edfa1</src>
    <name>Les Boutiques du Lac</name>
    <desc/>
  </wpt>
  <wpt lat="44.0994618" lon="4.1485028">
    <src>07b26e3662b847dfb81df4e832d3514e</src>
    <name>Avenue Jean Chaptal 1</name>
    <desc/>
  </wpt>
  <wpt lat="44.4404976" lon="4.7189199">
    <src>07b31adb2e3c4040b9f869b47d9edb2b</src>
    <name>Chemin Basta de Sidera</name>
    <desc/>
  </wpt>
  <wpt lat="48.8453785" lon="2.2921763">
    <src>07bb4bd111184a60aa4557d8ca527863</src>
    <name>Place du Commerce</name>
    <desc/>
  </wpt>
  <wpt lat="43.6575796" lon="3.9858007">
    <src>07d4f99169314ce98aebb5a9dbd6ff7f</src>
    <name>Domaine de Saint Antoine</name>
    <desc/>
  </wpt>
  <wpt lat="45.5887817" lon="4.0403323">
    <src>07d53a6a4694466e91065f18539f346a</src>
    <name>Chemin de l'Eglise</name>
    <desc/>
  </wpt>
  <wpt lat="46.7171044" lon="4.0812156">
    <src>07dd443ceff2462fbe565ebcfda9c723</src>
    <name>Route d'Issy l'Eveque 1</name>
    <desc/>
  </wpt>
  <wpt lat="47.871388" lon="5.3410215">
    <src>07de6f01fcaf4e60af1bbcc16f0776ff</src>
    <name>Rue des Vosges</name>
    <desc/>
  </wpt>
  <wpt lat="45.7634092" lon="4.7962141">
    <src>07e67b169d4044bc9390f549145a61ed</src>
    <name>Rue Fr&#232;re Benoit 1</name>
    <desc>Oct 1-Apr 30 08:00-19:00; May 1-Sep 30 08:00-22:00</desc>
  </wpt>
  <wpt lat="46.9002778" lon="6.3757448">
    <src>07ea17b59ce64bd6891afb0a0b793a37</src>
    <name>Rue Edwige Feuill&#232;re</name>
    <desc/>
  </wpt>
  <wpt lat="43.5492389" lon="6.9426642">
    <src>07f0c1e82fb543d6ba5e01551afd667c</src>
    <name>Av Mal de Lattre de Tassigny</name>
    <desc/>
  </wpt>
  <wpt lat="43.2251605" lon="2.9225518">
    <src>07f3a8f819ef4d5bb561102713ff2235</src>
    <name>Impasse Saint-Roch</name>
    <desc/>
  </wpt>
  <wpt lat="44.7026966" lon="3.2535741">
    <src>07f49763ddbc487cb8b3e6268abf85db</src>
    <name>La Roche - Chaze de Peyre (La Chaze-de-Peyre)</name>
    <desc/>
  </wpt>
  <wpt lat="47.2368062" lon="4.6273255">
    <src>07f6ecce4b164b3fb59a67202eb60ffc</src>
    <name>Chemin du Lac 4</name>
    <desc/>
  </wpt>
  <wpt lat="45.8486193" lon="5.8076048">
    <src>0800e7742f8440e6a49773e250de4528</src>
    <name>R Notre Dame des Victoires</name>
    <desc/>
  </wpt>
  <wpt lat="45.4217257" lon="6.6412072">
    <src>08124031866748718e229c4ef4413082</src>
    <name>R des Rois</name>
    <desc/>
  </wpt>
  <wpt lat="44.5857155" lon="5.1337662">
    <src>08157ed615cc4ad28b49456fd411e5e3</src>
    <name>Chemin des Jardins</name>
    <desc/>
  </wpt>
  <wpt lat="47.5916284" lon="3.7665991">
    <src>0817431b9b4a4ac6bc298bd87949d76e</src>
    <name>Bois des Grottes</name>
    <desc/>
  </wpt>
  <wpt lat="45.8742" lon="4.4916181">
    <src>081f007d2d644da8ac7b167563134b55</src>
    <name>Impasse de la Passerelle</name>
    <desc>24/7</desc>
  </wpt>
  <wpt lat="43.9472666" lon="4.8102705">
    <src>082cc59069df494981924dc3b94deaaf</src>
    <name>Rue de l'Olivier</name>
    <desc/>
  </wpt>
  <wpt lat="43.9231893" lon="6.1283645">
    <src>082dacf61cee4c0492b94b06dc0c192f</src>
    <name>Route du Pont de l'Asse</name>
    <desc/>
  </wpt>
  <wpt lat="42.7749482" lon="9.474756">
    <src>08310b71d803445b8f969d75a4aca2a8</src>
    <name>Place de la Mairie</name>
    <desc/>
  </wpt>
  <wpt lat="48.6228432" lon="7.307025">
    <src>0839d25d222e477bbc0be71f25236c7d</src>
    <name>Impasse de l'Escalier</name>
    <desc/>
  </wpt>
  <wpt lat="45.7209875" lon="6.5441643">
    <src>08423d8085784610a0e1f6cc7fb1dcfd</src>
    <name>Rte de Marcot 1</name>
    <desc/>
  </wpt>
  <wpt lat="49.0048063" lon="2.5739984">
    <src>084327beeeca48649fa01e6148afbe45</src>
    <name>A&#233;roport de Paris-Charles-de-Gaulle 58 1</name>
    <desc/>
  </wpt>
  <wpt lat="43.7661713" lon="7.4586838">
    <src>085365a37f8b4e3289d54bef74786760</src>
    <name>Chemin des Gen&#234;ts</name>
    <desc/>
  </wpt>
  <wpt lat="47.8451149" lon="3.6104317">
    <src>085a3920a5ab44f99738e33e9d50d18a</src>
    <name>Bois du Thureau 1</name>
    <desc/>
  </wpt>
  <wpt lat="45.5656441" lon="4.4404995">
    <src>085f1a5febc644a2935d272b9863082e</src>
    <name>Rue du Saint Sepulcre</name>
    <desc/>
  </wpt>
  <wpt lat="45.7418116" lon="4.8566183">
    <src>086242ad66dd401b8d28096ec544a9f1</src>
    <name>Rue de la Solidarit&#233;</name>
    <desc/>
  </wpt>
  <wpt lat="44.1625225" lon="4.62284">
    <src>08686cf0d6e8406fbc742ef5be41ac51</src>
    <name>Rue Louis Thomas</name>
    <desc/>
  </wpt>
  <wpt lat="43.9813141" lon="3.718036">
    <src>0869f64ec70e4e53a45738f2a13632d5</src>
    <name>Route du Pont Neuf</name>
    <desc/>
  </wpt>
  <wpt lat="44.3191896" lon="5.7018631">
    <src>087951edc7814844b805ba3b6dfc84e7</src>
    <name>Lot les Terrasses du Paradis</name>
    <desc>24/7</desc>
  </wpt>
  <wpt lat="44.8254622" lon="6.676734">
    <src>087a39fd94524fef89c625c83571fdbd</src>
    <name>Adresse inconnue Hautes-Alpes 3</name>
    <desc/>
  </wpt>
  <wpt lat="43.0974108" lon="2.1741831">
    <src>08833b15e68c4ab2b14b63b7c75ec084</src>
    <name>Rue Urbain Gibert</name>
    <desc/>
  </wpt>
  <wpt lat="45.7201618" lon="4.9176103">
    <src>0888b2dbd12a478da2e404e4d5502352</src>
    <name>Rue des Jockeys 1</name>
    <desc/>
  </wpt>
  <wpt lat="45.6726339" lon="4.8224278">
    <src>089867fb027242c59bb6052d0cf7dfde</src>
    <name>Place de l'Europe</name>
    <desc/>
  </wpt>
  <wpt lat="48.5582376" lon="2.6145118">
    <src>089922366bfa4eccb085a4c41c8114b6</src>
    <name>Rue des Marches de Breviande</name>
    <desc/>
  </wpt>
  <wpt lat="46.1607921" lon="6.6698863">
    <src>089b2f51b8104f04b305be27294717ef</src>
    <name>R de Pressenage</name>
    <desc/>
  </wpt>
  <wpt lat="42.4948731" lon="2.7424643">
    <src>08b7b8b2a54843c398429b2d32524c18</src>
    <name>Rond-Point Ordre National du Merite</name>
    <desc/>
  </wpt>
  <wpt lat="45.0349233" lon="3.106501">
    <src>08b8e7ddcbaf4fe99b4445f335d755a2</src>
    <name>Place du 24 Aout 1944 1</name>
    <desc/>
  </wpt>
  <wpt lat="44.5215411" lon="3.9098075">
    <src>08bde4bfaedc4015a78abc03d7d3942a</src>
    <name>Place de l'Eglise</name>
    <desc/>
  </wpt>
  <wpt lat="44.8703778" lon="3.2479943">
    <src>08be8e8570074a768fb4e2476a2dd33b</src>
    <name>Combe Chalde</name>
    <desc/>
  </wpt>
  <wpt lat="49.3581802" lon="6.1862542">
    <src>08c9a630d0be43dcb31fbc81f7b8d6b4</src>
    <name>Esplanade de la Brasserie</name>
    <desc/>
  </wpt>
  <wpt lat="48.8055353" lon="2.1154698">
    <src>08d1a3039fbc4b4db95b2ab873a9057a</src>
    <name>Adresse inconnue Yvelines 2</name>
    <desc/>
  </wpt>
  <wpt lat="45.8951382" lon="3.1194359">
    <src>08d6e49a877b4e14b40c04cfa5d36ba1</src>
    <name>Pl des Martyrs de la Resistance 1</name>
    <desc/>
  </wpt>
  <wpt lat="43.2843988" lon="5.3164508">
    <src>0907dbe17a3e466aa789294ebcbb0bca</src>
    <name>Adresse inconnue Bouches-du-Rh&#244;ne 3</name>
    <desc/>
  </wpt>
  <wpt lat="46.961803" lon="4.8370756">
    <src>09243ecdef684614af0701f5b656f804</src>
    <name>Adresse inconnue C&#244;te-d'Or 2</name>
    <desc/>
  </wpt>
  <wpt lat="43.6324677" lon="3.8713615">
    <src>092865c43722455790c40d9c800dbfd3</src>
    <name>Avenue du Val de Montferrand 1</name>
    <desc/>
  </wpt>
  <wpt lat="44.1104825" lon="3.1032348">
    <src>09410843990b473ba006d4910852c55d</src>
    <name>Pountio d&#8217;Agast</name>
    <desc/>
  </wpt>
  <wpt lat="48.8437967" lon="2.6149562">
    <src>09422871362442f0b2224eb0e68f79f1</src>
    <name>Place Gaston Defferre</name>
    <desc/>
  </wpt>
  <wpt lat="48.6897919" lon="6.1901544">
    <src>094b7bfb57e2471ab97293284a644329</src>
    <name>Rue des Jardiniers</name>
    <desc/>
  </wpt>
  <wpt lat="49.4265424" lon="2.088108">
    <src>09520ee47b4c431685b33c98cb358e60</src>
    <name>Place de la Gare</name>
    <desc/>
  </wpt>
  <wpt lat="44.7281501" lon="2.5441182">
    <src>0967500edcbe4c50bbfd30e7e9ee4536</src>
    <name>6 Rue du 19 Mars</name>
    <desc/>
  </wpt>
  <wpt lat="47.4832707" lon="6.8383314">
    <src>0972065e231a4de6af63e094cdbc0d0a</src>
    <name>Rue du Doubs</name>
    <desc/>
  </wpt>
  <wpt lat="43.5276145" lon="6.148348">
    <src>0974d71254034d4684ab2718d5c73dad</src>
    <name>Rue de l'Arenier</name>
    <desc/>
  </wpt>
  <wpt lat="43.2869257" lon="6.6028885">
    <src>097e6a005e964052b2861a09a40dd512</src>
    <name>Boulevard des Sommets</name>
    <desc>24/7</desc>
  </wpt>
  <wpt lat="44.4015388" lon="4.2889398">
    <src>098cdbd2d0b5484290d0e1abc953220a</src>
    <name>Quartier des Thoulouzes</name>
    <desc/>
  </wpt>
  <wpt lat="45.4326174" lon="5.5153566">
    <src>098dedc6f93f4f5bb8fbeb6d0b56aa37</src>
    <name>Rue des Bains</name>
    <desc/>
  </wpt>
  <wpt lat="48.8508344" lon="2.3703098">
    <src>098e19a21149475aabc20f5b7b5e5b2e</src>
    <name>Rue Biscornet</name>
    <desc/>
  </wpt>
  <wpt lat="48.8844916" lon="2.3446667">
    <src>098e4ef55545431dbd15d5edb922f1c5</src>
    <name>Rue Livingstone</name>
    <desc/>
  </wpt>
  <wpt lat="48.818933" lon="2.5317643">
    <src>0994cabb3f464c01a009e8a3779c9154</src>
    <name>Rue d'Alembert</name>
    <desc/>
  </wpt>
  <wpt lat="43.697969" lon="7.2696745">
    <src>09b1d215bcf54536a77eef189fb860df</src>
    <name>Place Mass&#233;na</name>
    <desc/>
  </wpt>
  <wpt lat="48.642646" lon="2.2311115">
    <src>09b4282211fc46ee96b6433524d1dde6</src>
    <name>Rue Jean Duboscq</name>
    <desc/>
  </wpt>
  <wpt lat="45.5698799" lon="5.916756">
    <src>09bd4d8fb7e5498ca37c269550372629</src>
    <name>Sq Paul Vidal</name>
    <desc/>
  </wpt>
  <wpt lat="50.0482024" lon="2.9344255">
    <src>09c34f4da99e40ab9fddfa9e0e92024c</src>
    <name>Autoroute A2</name>
    <desc/>
  </wpt>
  <wpt lat="46.7846463" lon="4.8529178">
    <src>09d8df75464c44b58d6271dd7765971a</src>
    <name>Rue Emiland Menand</name>
    <desc/>
  </wpt>
  <wpt lat="44.4656592" lon="6.7539132">
    <src>09e09df2194d4528a0420bfb268dc537</src>
    <name>Champ Feleze</name>
    <desc/>
  </wpt>
  <wpt lat="43.2943126" lon="5.5672822">
    <src>09ea79e25257443497a139417977df51</src>
    <name>Rue du Jeune Anacharsis</name>
    <desc/>
  </wpt>
  <wpt lat="45.0461304" lon="3.9261147">
    <src>09ec2672f90843909213dbb424a032af</src>
    <name>Place de l'Eglise</name>
    <desc/>
  </wpt>
  <wpt lat="44.020958" lon="4.9663317">
    <src>09ef0abc7e304052836100479f20bd6d</src>
    <name>Wave Island 1</name>
    <desc/>
  </wpt>
  <wpt lat="44.3875452" lon="2.336974">
    <src>09f8ea5ec42548b082bc72d03afd1d15</src>
    <name>Lo Pesso 1</name>
    <desc/>
  </wpt>
  <wpt lat="46.2351645" lon="4.7097244">
    <src>09fc91fa5d41433b88d4ee2bdb151403</src>
    <name>Chante Chev&#234;che</name>
    <desc/>
  </wpt>
  <wpt lat="45.6135637" lon="5.2129175">
    <src>0a0395a798d94b4e889cc4fe618597eb</src>
    <name>Le Pre du Temple</name>
    <desc/>
  </wpt>
  <wpt lat="44.2394068" lon="5.2802052">
    <src>0a0b063bb94d43e293094af390d9e9d5</src>
    <name>Place de l'Eglise</name>
    <desc/>
  </wpt>
  <wpt lat="46.067434" lon="4.6475558">
    <src>0a0cee0be1564f9280973b3cbbc3c003</src>
    <name>Rue de l'Eglise</name>
    <desc/>
  </wpt>
  <wpt lat="48.8550071" lon="2.3004317">
    <src>0a168350293a491e9c184f802f98f774</src>
    <name>Avenue Emile Deschanel</name>
    <desc/>
  </wpt>
  <wpt lat="45.3006515" lon="3.5402764">
    <src>0a1b5ec3e36844ec9b40b1f93585a2bb</src>
    <name>Moulin Roubin</name>
    <desc/>
  </wpt>
  <wpt lat="47.0265555" lon="4.8280817">
    <src>0a3adcbb50f143bb951136d82c151009</src>
    <name>Chemin de la Creuzotte</name>
    <desc/>
  </wpt>
  <wpt lat="45.8251665" lon="4.8697637">
    <src>0a3c0ff425204c118a9fe4352142e165</src>
    <name>All&#233;e du 4 Avril 1908</name>
    <desc>sunrise-sunset</desc>
  </wpt>
  <wpt lat="43.1697869" lon="2.7025625">
    <src>0a4721cc6c6e4a22a44fac67b27863be</src>
    <name>Mingraut Sud</name>
    <desc/>
  </wpt>
  <wpt lat="45.9067203" lon="2.7556247">
    <src>0a50e33f192048a3930d39745d843713</src>
    <name>55 Rue de la Plage</name>
    <desc/>
  </wpt>
  <wpt lat="46.3032534" lon="4.8338868">
    <src>0a5172fde79b4db9894e299046596a11</src>
    <name>Quai Lamartine</name>
    <desc/>
  </wpt>
  <wpt lat="43.5736787" lon="3.9521535">
    <src>0a531bd94ae3448b9dba7c656f281169</src>
    <name>Route de la Foire 1</name>
    <desc/>
  </wpt>
  <wpt lat="48.9868727" lon="2.4664077">
    <src>0a59506098d642fc931d296156a15e67</src>
    <name>Av du 12e Rgt de Cuirassiers</name>
    <desc/>
  </wpt>
  <wpt lat="45.7745043" lon="5.3081061">
    <src>0a5d5b48986d4b368e4747f9cc115e06</src>
    <name>Place de Larina</name>
    <desc/>
  </wpt>
  <wpt lat="44.8110715" lon="6.9675449">
    <src>0a5db2260ea24217b8cb5ff5ff3d3f4f</src>
    <name>Abri&#232;s</name>
    <desc/>
  </wpt>
  <wpt lat="48.0402108" lon="7.1387205">
    <src>0a64923481a54c02a965e3e01bb68aa2</src>
    <name>Place de la Salle des F&#234;tes</name>
    <desc/>
  </wpt>
  <wpt lat="45.9735459" lon="4.3380278">
    <src>0a65182cd90542dcac16924a08b0bef9</src>
    <name>Route de Joasson</name>
    <desc/>
  </wpt>
  <wpt lat="48.3305731" lon="7.3138376">
    <src>0a67c35c1d9240dc8bcaf9245adf2e86</src>
    <name>Rue de l'Eglise</name>
    <desc/>
  </wpt>
  <wpt lat="48.5732652" lon="7.7632529">
    <src>0a720f65f92c490c8491dfcdd652cd2c</src>
    <name>Rue Pierre Fresnay 1</name>
    <desc/>
  </wpt>
  <wpt lat="45.2399886" lon="6.9514171">
    <src>0a8756d68c2945ad88b67f479542b38d</src>
    <name>Adresse inconnue Savoie 4</name>
    <desc/>
  </wpt>
  <wpt lat="45.9423789" lon="6.4278821">
    <src>0a87f8f75012421f9b25dd24edb67da7</src>
    <name>Pl de la Grenette</name>
    <desc/>
  </wpt>
  <wpt lat="43.1541854" lon="2.9632401">
    <src>0a88b9a483aa4d5bbde348682c7521c8</src>
    <name>Avenue Paul Sabatier</name>
    <desc/>
  </wpt>
  <wpt lat="44.9699603" lon="4.0536548">
    <src>0a9d7987b803408c8c50339db0d0ef17</src>
    <name>Place de la Mairie</name>
    <desc/>
  </wpt>
  <wpt lat="48.8258803" lon="3.0923918">
    <src>0aa0df32fa504c29bbb772961068d709</src>
    <name>Rue Maurice Sujet 1</name>
    <desc/>
  </wpt>
  <wpt lat="45.7892391" lon="4.7912413">
    <src>0aa367e81a4544e9b78e65e82c7f9974</src>
    <name>Rue de Beer-Sheva</name>
    <desc>Mo-Su 05:00-22:00</desc>
  </wpt>
  <wpt lat="44.3051477" lon="4.6885152">
    <src>0aa6fde4ee0240b3a68f8658a5968fff</src>
    <name>Place du Chateau</name>
    <desc/>
  </wpt>
  <wpt lat="43.5416099" lon="6.7859214">
    <src>0aac9f4a22784c2282258a4aa6f23138</src>
    <name>Adresse inconnue Var 3</name>
    <desc/>
  </wpt>
  <wpt lat="46.7415788" lon="5.9129445">
    <src>0aacd2660bab4269b6ae2d318b8f4377</src>
    <name>Place de la Champagnolaise</name>
    <desc/>
  </wpt>
  <wpt lat="49.1943823" lon="2.4656174">
    <src>0aad26e0954540afa289f436a390f5df</src>
    <name>Place Omer Vallon</name>
    <desc/>
  </wpt>
  <wpt lat="50.4174378" lon="2.8317396">
    <src>0ab286424e8c4701af55a82d4a8ec77d</src>
    <name>La Pature</name>
    <desc/>
  </wpt>
  <wpt lat="48.2057607" lon="7.362198">
    <src>0ab99b0509f142aaa26486a59451a484</src>
    <name>Grand Rue</name>
    <desc/>
  </wpt>
  <wpt lat="45.20175" lon="3.9854114">
    <src>0abd713b59d84eaeb7dfcecea97f83ed</src>
    <name>Place Saint Jacques</name>
    <desc/>
  </wpt>
  <wpt lat="46.3694754" lon="6.3271261">
    <src>0ac3787f2b244013b0efb9647c94de20</src>
    <name>Pl de la Mairie</name>
    <desc/>
  </wpt>
  <wpt lat="46.256618" lon="6.5308266">
    <src>0aca256dc4ba432b86455296e34517cc</src>
    <name>Pl de la Mairie</name>
    <desc/>
  </wpt>
  <wpt lat="44.0281612" lon="3.8229665">
    <src>0ad593b9b3c74232b821e1794a350095</src>
    <name>174 Le Village</name>
    <desc/>
  </wpt>
  <wpt lat="44.1008187" lon="3.0946785">
    <src>0adbc69800c848578dcc6ecf43c51562</src>
    <name>Hameau de Massebiau 1</name>
    <desc/>
  </wpt>
  <wpt lat="45.0682708" lon="4.8661993">
    <src>0ae018ccd44342e9864bf1dfec6b832f</src>
    <name>Centre commercial Intermarch&#233;</name>
    <desc/>
  </wpt>
  <wpt lat="49.5177435" lon="5.3617976">
    <src>0ae16189e2434649918621d662e97139</src>
    <name>Rue de l'Hotel de Ville</name>
    <desc/>
  </wpt>
  <wpt lat="45.7441136" lon="4.8711419">
    <src>0af3613773cd4dc4a193e36cc5c1776e</src>
    <name>Place Ambroise Courtois</name>
    <desc>Mo-Su 06:00-02:00</desc>
  </wpt>
  <wpt lat="45.8434888" lon="5.0699425">
    <src>0b04bfd182334429b19f3dc83ea8de2e</src>
    <name>Rue du Loup</name>
    <desc/>
  </wpt>
  <wpt lat="45.1848259" lon="4.2171866">
    <src>0b0774c1f14445e2875fa2df39e67ceb</src>
    <name>Place Marius Sarda</name>
    <desc/>
  </wpt>
  <wpt lat="48.6895778" lon="2.29803">
    <src>0b13b881c86d4a0f8a37c1d33d52fac1</src>
    <name>Rue L&#233;on Robelin</name>
    <desc/>
  </wpt>
  <wpt lat="44.2437237" lon="5.0729688">
    <src>0b1eee8ffd364d81805ce28eeb639917</src>
    <name>Rue de la Duranette</name>
    <desc/>
  </wpt>
  <wpt lat="43.5313534" lon="4.1400607">
    <src>0b27093c023d47cc97b1fd07417c55e5</src>
    <name>Rue Alphonse Daudet</name>
    <desc/>
  </wpt>
  <wpt lat="43.9860797" lon="7.5542539">
    <src>0b2bdc5511d14fefb2182d34cc02bdc8</src>
    <name>Avenue P&#232;re Mattia</name>
    <desc/>
  </wpt>
  <wpt lat="45.256682" lon="5.0288435">
    <src>0b30c4e7d1744140ab1598dc4a8e1e1b</src>
    <name>Rue du Palais Id&#233;al</name>
    <desc/>
  </wpt>
  <wpt lat="46.569185" lon="2.1499563">
    <src>0b312bcae2f841159fc22fb9bdea5d11</src>
    <name>Rue Emile Chenon</name>
    <desc/>
  </wpt>
  <wpt lat="48.8453226" lon="2.3377425">
    <src>0b3b89b99e7645319041158aeee3568b</src>
    <name>Jardin du Luxembourg</name>
    <desc/>
  </wpt>
  <wpt lat="48.8313505" lon="2.3205286">
    <src>0b45a2464e734a4c9242e02f9bb5756b</src>
    <name>Rue Olivier Noyer</name>
    <desc/>
  </wpt>
  <wpt lat="48.887233" lon="2.3758386">
    <src>0b48c30c8d9541c096d03a15edda9f0f</src>
    <name>Rue de Rouen 1</name>
    <desc/>
  </wpt>
  <wpt lat="50.6899665" lon="3.180396">
    <src>0b499b41d1ff4ef7bd2d042663280326</src>
    <name>McArthurGlen Roubaix</name>
    <desc/>
  </wpt>
  <wpt lat="43.1127959" lon="5.9375009">
    <src>0b4ea7cda32d412fb0fa964ac940cc91</src>
    <name>Boulevard de Bazeilles</name>
    <desc/>
  </wpt>
  <wpt lat="45.9604266" lon="6.8866087">
    <src>0b5092bd758b47efa6d93add409b75de</src>
    <name>Br&#233;vent/Fl&#233;g&#232;re (Chamonix)</name>
    <desc/>
  </wpt>
  <wpt lat="45.7951212" lon="4.7919491">
    <src>0b64791dbb9d4d4a96bc0406a6a11728</src>
    <name>Avenue de Lanessan</name>
    <desc/>
  </wpt>
  <wpt lat="48.7794705" lon="2.4538847">
    <src>0b67537417fb4cc9bfa9092cde064a57</src>
    <name>Avenue de la France Libre</name>
    <desc/>
  </wpt>
  <wpt lat="43.5220751" lon="5.5107632">
    <src>0b6eca4a051a47cb93f130cb2ed0fe8e</src>
    <name>Place du Ferrageon 1</name>
    <desc/>
  </wpt>
  <wpt lat="43.2093785" lon="2.3600833">
    <src>0b8f9f97c30c497389084b5e4ac24e96</src>
    <name>Saint Etienne</name>
    <desc/>
  </wpt>
  <wpt lat="49.0128102" lon="7.5375328">
    <src>0b92e9dec7fd4987966bf2e048976522</src>
    <name>Etoile du Matin</name>
    <desc/>
  </wpt>
  <wpt lat="48.8957772" lon="2.3460043">
    <src>0b9a7970c1ee4151b05f4141dfa56569</src>
    <name>Place Albert Kahn</name>
    <desc/>
  </wpt>
  <wpt lat="42.7612075" lon="2.8810716">
    <src>0b9b2d67352e4942b66d7a3f994c4279</src>
    <name>Rue du Chardonnay 1</name>
    <desc/>
  </wpt>
  <wpt lat="46.0593105" lon="3.5686189">
    <src>0bb1e073ff6948d4a8060e3f29209622</src>
    <name>Route de Cusset</name>
    <desc/>
  </wpt>
  <wpt lat="44.3009284" lon="3.320511">
    <src>0bb787491b474729bd877f6dcc48a755</src>
    <name>Lotissement Communal</name>
    <desc/>
  </wpt>
  <wpt lat="45.0692581" lon="5.5559515">
    <src>0bbbe2b2a12240ee91b5596f4e7b94e4</src>
    <name>Rue du Professeur Robert Debre</name>
    <desc/>
  </wpt>
  <wpt lat="48.8965576" lon="2.3382747">
    <src>0bbda1705604469ca02527bbabfbd985</src>
    <name>Passage du Champ Marie</name>
    <desc/>
  </wpt>
  <wpt lat="44.6002271" lon="3.934413">
    <src>0bc1973ec1dc4e2cbacd2a4eb6c47604</src>
    <name>Route de l'Abbaye</name>
    <desc/>
  </wpt>
  <wpt lat="44.4185906" lon="4.8023926">
    <src>0bccae5cbee74b9aa14701d8f334d279</src>
    <name>Place Nicolas Appert</name>
    <desc/>
  </wpt>
  <wpt lat="44.5028891" lon="3.4102426">
    <src>0bd59692a8214056a454a877559e9913</src>
    <name>Impasse Saint Veran</name>
    <desc/>
  </wpt>
  <wpt lat="43.5354225" lon="4.1354556">
    <src>0bebd2a85e624a8a8263dd59a2ac2b08</src>
    <name>Place Leon Constantin</name>
    <desc/>
  </wpt>
  <wpt lat="45.7570582" lon="4.8515851">
    <src>0bf0688ac5dd4cd2b47396d179013576</src>
    <name>Rue Andr&#233; Philip</name>
    <desc>Mo-Su 05:00-22:00</desc>
  </wpt>
  <wpt lat="44.2837448" lon="5.0335933">
    <src>0bfd43da044d4e208a95f17dd24464de</src>
    <name>Rue des Esperants</name>
    <desc/>
  </wpt>
  <wpt lat="44.2906301" lon="2.8349714">
    <src>0bfd9174d9a748b3b57d577d82d1566e</src>
    <name>Impasse du Pre Amat</name>
    <desc/>
  </wpt>
  <wpt lat="48.5779757" lon="7.7536444">
    <src>0c08cd6352a34f62b445ed0c5374cbed</src>
    <name>Place d'Austerlitz</name>
    <desc>Mo-Sa 7:00-19:30; Su 8:00-19:30</desc>
  </wpt>
  <wpt lat="48.8886912" lon="2.3739259">
    <src>0c0b8364f6c547d897d701e09bdce394</src>
    <name>Rue Riquet 1</name>
    <desc/>
  </wpt>
  <wpt lat="48.8519692" lon="2.3809344">
    <src>0c1459e34fb149629b42905bf0d1c680</src>
    <name>Rue Saint-Bernard</name>
    <desc/>
  </wpt>
  <wpt lat="45.7653296" lon="4.9115512">
    <src>0c1f6c48768649ab8d27da071275f807</src>
    <name>Rue du Cimeti&#232;re</name>
    <desc/>
  </wpt>
  <wpt lat="49.0030493" lon="2.5850013">
    <src>0c2102c19ff14ab4b8b0adbb4d2cb5b4</src>
    <name>A&#233;roport de Paris-Charles-de-Gaulle 58 2</name>
    <desc/>
  </wpt>
  <wpt lat="50.2789788" lon="3.9675583">
    <src>0c25b6ce4b5b4311962085020839f228</src>
    <name>Avenue du Parc</name>
    <desc/>
  </wpt>
  <wpt lat="42.8355521" lon="2.4801646">
    <src>0c2dacb2cfb349d88832a065f60abf7c</src>
    <name>Saint Antoine</name>
    <desc/>
  </wpt>
  <wpt lat="45.8208933" lon="6.7278321">
    <src>0c35c516f636487ca623c451503f2b4d</src>
    <name>Che de la Cote d'Auran</name>
    <desc/>
  </wpt>
  <wpt lat="44.3318862" lon="4.7906912">
    <src>0c39ae52ebb6480cac923f7864f6acc7</src>
    <name>Rue de la Soie</name>
    <desc/>
  </wpt>
  <wpt lat="47.8854819" lon="6.854282">
    <src>0c3a12fbc5b24e1d96f4f005bc007692</src>
    <name>Rue de l'Eglise</name>
    <desc/>
  </wpt>
  <wpt lat="43.6445368" lon="3.8820459">
    <src>0c43631cb0604fb8815d8a795999d09a</src>
    <name>Rue Jean-Fran&#231;ois Breton 1</name>
    <desc/>
  </wpt>
  <wpt lat="44.091991" lon="2.9967172">
    <src>0c437a9e7fd94b188721fb415cf6aa23</src>
    <name>Callade des Jardins 1</name>
    <desc/>
  </wpt>
  <wpt lat="45.560952" lon="4.0779176">
    <src>0c494fcee78940a183bfa802090c84c4</src>
    <name>Chemin du Tronchillon</name>
    <desc/>
  </wpt>
  <wpt lat="44.6149842" lon="6.3346022">
    <src>0c4e9d869e164a238ad6b3e5dd62925b</src>
    <name>Charri&#232;re des Barbus</name>
    <desc/>
  </wpt>
  <wpt lat="42.8294642" lon="2.1789308">
    <src>0c5cc8013bbd4ce59b883d3fec7ddb5e</src>
    <name>Le Village</name>
    <desc/>
  </wpt>
  <wpt lat="45.9023314" lon="4.1815412">
    <src>0c6cf2392ec640b3bb7ce9a1f72c7d25</src>
    <name>Impasse Saint Charles</name>
    <desc/>
  </wpt>
  <wpt lat="49.1043646" lon="6.7056428">
    <src>0c785fd9b17941ffba12f324330184b6</src>
    <name>Rue des Tanneurs</name>
    <desc/>
  </wpt>
  <wpt lat="49.1008498" lon="6.1711472">
    <src>0c83eb3948a444b7b7135a6cb4465f88</src>
    <name>Rue Dom Calmet</name>
    <desc/>
  </wpt>
  <wpt lat="43.1289319" lon="2.8983835">
    <src>0c8e495e778440889c41a9197d82611a</src>
    <name>Avenue de Fontfroide</name>
    <desc/>
  </wpt>
  <wpt lat="45.4551185" lon="4.3830611">
    <src>0c938e20629a4783bd19eb6377fd782d</src>
    <name>Rue Bergson</name>
    <desc/>
  </wpt>
  <wpt lat="43.2805081" lon="3.2793861">
    <src>0c94b2b4dc4a496b829a1a1cae699f63</src>
    <name>Rue de la Prudhomie</name>
    <desc/>
  </wpt>
  <wpt lat="49.0482792" lon="2.0996024">
    <src>0c94ff49def64e8a82fcd7df5a412cb1</src>
    <name>Rue de l'H&#244;tel Dieu</name>
    <desc/>
  </wpt>
  <wpt lat="45.7228473" lon="4.8247964">
    <src>0ca477a54e1a48679a64a4298cb3e1ca</src>
    <name>All&#233;e Pierre de Coubertin</name>
    <desc>We,Sa,Su 10:00-17:00; Apr-May SH 10:00-17:00; Jul-Aug: Mo-Su 10:00-17:00</desc>
  </wpt>
  <wpt lat="48.8783363" lon="2.2296479">
    <src>0ca622547b824a8b84b8700778d6bee1</src>
    <name>All&#233;e Santos - Dumont</name>
    <desc/>
  </wpt>
  <wpt lat="45.4752436" lon="4.5142052">
    <src>0caccbecbc434e15a7903ea24658f710</src>
    <name>Square Nelson Mandela</name>
    <desc/>
  </wpt>
  <wpt lat="48.7540394" lon="2.2155841">
    <src>0cb3019004154e3698e62013ebf9a3ab</src>
    <name>Passage Claude Marie Pierre</name>
    <desc/>
  </wpt>
  <wpt lat="42.702244" lon="9.4477559">
    <src>0cba0a55efdc46abac177c87001dc4f4</src>
    <name>Residence Casabella</name>
    <desc/>
  </wpt>
  <wpt lat="43.9705866" lon="4.5541056">
    <src>0cbd6483a2db412cb57277fa18cff920</src>
    <name>Rue de l'Eglise</name>
    <desc/>
  </wpt>
  <wpt lat="48.8749247" lon="2.3636604">
    <src>0cc2db47cb2a4c6ab3b957b1eb55f502</src>
    <name>Quai de Valmy 2</name>
    <desc/>
  </wpt>
  <wpt lat="44.4547744" lon="4.7572589">
    <src>0cd0b1f5630f4d2b9a2fa6bc0038b4ea</src>
    <name>Adresse inconnue Dr&#244;me 2</name>
    <desc/>
  </wpt>
  <wpt lat="48.628725" lon="2.0808309">
    <src>0cd53518c5ec475eb746237362800ab9</src>
    <name>Rue Alice Milliat</name>
    <desc/>
  </wpt>
  <wpt lat="49.0319259" lon="7.9497439">
    <src>0cd5a34084454f2a86901222dba19253</src>
    <name>Rue des Messageries</name>
    <desc/>
  </wpt>
  <wpt lat="43.6607741" lon="6.9223945">
    <src>0cde8cccd50e409196dd6889d8c469eb</src>
    <name>Place de-la Foux</name>
    <desc/>
  </wpt>
  <wpt lat="45.3130056" lon="6.5387522">
    <src>0cf52745babb48c79a45f563febd6e45</src>
    <name>Les Trois Vall&#233;es 4</name>
    <desc/>
  </wpt>
  <wpt lat="43.2827993" lon="3.4510678">
    <src>0cf729f28ee542ae9fb224b6ca8676ff</src>
    <name>Passage du Front de Mer</name>
    <desc/>
  </wpt>
  <wpt lat="44.9442494" lon="4.729642">
    <src>0cfc1a341b304a43bf88ed0aa4f19b8e</src>
    <name>Place du Belv&#233;d&#232;re</name>
    <desc/>
  </wpt>
  <wpt lat="46.586064" lon="5.6981029">
    <src>0d0882cebe5c409c82b1f42dfd8753c0</src>
    <name>Grande Rue</name>
    <desc/>
  </wpt>
  <wpt lat="48.8412229" lon="2.2546068">
    <src>0d1a813ee9214ff6b40a03aa358422aa</src>
    <name>Avenue du Parc des Princes</name>
    <desc/>
  </wpt>
  <wpt lat="43.4042676" lon="3.6945207">
    <src>0d2648a9c504428cb73c3e97df3da6fe</src>
    <name>Rue du 11 Novembre 1918</name>
    <desc/>
  </wpt>
  <wpt lat="45.4115825" lon="2.4966625">
    <src>0d30d529abeb444bb36e81c668c471da</src>
    <name>Route du Barrage 1</name>
    <desc/>
  </wpt>
  <wpt lat="46.0604708" lon="6.5294256">
    <src>0d39561905cf40fe989b90ebadca2015</src>
    <name>R des 2 Ponts</name>
    <desc/>
  </wpt>
  <wpt lat="48.8262166" lon="2.3382475">
    <src>0d3a924942dc43fb9647d03da86ea68e</src>
    <name>Place Eugene Claudius-Petit</name>
    <desc/>
  </wpt>
  <wpt lat="45.1029254" lon="5.8713203">
    <src>0d3f05d1baa14017a4fa8c253246754e</src>
    <name>940c Route de Bachat Bouloud</name>
    <desc/>
  </wpt>
  <wpt lat="48.8717157" lon="2.0975687">
    <src>0d435fc6b6774d4f968aaadef216e432</src>
    <name>Place de la Gare</name>
    <desc/>
  </wpt>
  <wpt lat="44.2661937" lon="5.2783242">
    <src>0d521f0eee654ac08233b6dde6c850e7</src>
    <name>1100 Chemin de la Nible</name>
    <desc/>
  </wpt>
  <wpt lat="43.8933619" lon="5.1156897">
    <src>0d5ebd76f90c4f03b56efd019a49e2e4</src>
    <name>Impasse du Clocher</name>
    <desc/>
  </wpt>
  <wpt lat="46.3553297" lon="6.2864155">
    <src>0d688f9ec21248f9981001d0d50c1491</src>
    <name>Che de sous les Pres</name>
    <desc/>
  </wpt>
  <wpt lat="44.9308118" lon="4.894326">
    <src>0d762e549d6447a2b08c90832fe98ce1</src>
    <name>Boulevard Maurice Clerc</name>
    <desc/>
  </wpt>
  <wpt lat="47.9884945" lon="6.7656697">
    <src>0d79e98598314b868cb9cd02b2383818</src>
    <name>Chemin Departemental 34 de Planois</name>
    <desc/>
  </wpt>
  <wpt lat="45.240117" lon="6.9513025">
    <src>0d7c18b72daa40fbbbe1348c01da0aa7</src>
    <name>Adresse inconnue Savoie 5</name>
    <desc/>
  </wpt>
  <wpt lat="48.889607" lon="2.2921377">
    <src>0d7cd6c50b044097819afa8365b71868</src>
    <name>Rue Louis Blanc</name>
    <desc/>
  </wpt>
  <wpt lat="45.9173602" lon="6.1125036">
    <src>0d81cf29a2df40fab0bc22150b63d86f</src>
    <name>Rte du Cimetiere des Iles</name>
    <desc/>
  </wpt>
  <wpt lat="45.4027915" lon="4.1820171">
    <src>0d830c4bf36b4fe6b8ad4b5b679a520e</src>
    <name>Rue Traversi&#232;re</name>
    <desc/>
  </wpt>
  <wpt lat="45.9246971" lon="6.4214941">
    <src>0d84300720184a21abb9a017d7d86798</src>
    <name>Imp de la Combette</name>
    <desc/>
  </wpt>
  <wpt lat="45.1462219" lon="6.4202786">
    <src>0d9515dd123a441d9104bdac4d6398dc</src>
    <name>R de la Soupiere</name>
    <desc/>
  </wpt>
  <wpt lat="45.0783056" lon="4.565624">
    <src>0d98c491b7bb4a6fb04d257a8209d4c0</src>
    <name>Rue de la Fontaine</name>
    <desc/>
  </wpt>
  <wpt lat="43.6416569" lon="5.534226">
    <src>0d9acda107404b8b9142915e322f5af6</src>
    <name>Chemin du Lion d'Or</name>
    <desc/>
  </wpt>
  <wpt lat="47.9235537" lon="7.1577215">
    <src>0dae2994177a4d3d9f156555590c6d09</src>
    <name>Rue de l'Eglise</name>
    <desc/>
  </wpt>
  <wpt lat="48.636667" lon="4.9473549">
    <src>0daed57c4beb4c0591d8d72ad94bb0d7</src>
    <name>Place Aristide Briand</name>
    <desc/>
  </wpt>
  <wpt lat="43.644619" lon="3.8786165">
    <src>0db9522575b240dd96e380278e5c4d1b</src>
    <name>Rue Jean-Fran&#231;ois Breton 2</name>
    <desc/>
  </wpt>
  <wpt lat="48.8243761" lon="7.4052282">
    <src>0dc87f48b76e4c77982da11a6c1135c5</src>
    <name>Rue du G&#233;n&#233;ral Koenig</name>
    <desc/>
  </wpt>
  <wpt lat="43.8322294" lon="5.7850634">
    <src>0dca56b4adcd4556ba347441d9ed68a2</src>
    <name>Boulevard de la Plaine 1</name>
    <desc/>
  </wpt>
  <wpt lat="43.9298089" lon="4.9830403">
    <src>0dd65669280948f4b46a3bdace5cae13</src>
    <name>Chemin des Coudeli&#232;res 1</name>
    <desc/>
  </wpt>
  <wpt lat="44.2433284" lon="5.0139905">
    <src>0dd7b51444a24b7290bf803df6759032</src>
    <name>Montee du Moulin</name>
    <desc/>
  </wpt>
  <wpt lat="44.8306414" lon="2.6844654">
    <src>0de157a25e2e4b45a20988a19eed06c7</src>
    <name>Place de l'&#201;glise 1</name>
    <desc/>
  </wpt>
  <wpt lat="48.8538076" lon="2.349239">
    <src>0dee65487e0348a19a25cc867c9191e5</src>
    <name>Rue d'Arcole 1</name>
    <desc>24/7</desc>
  </wpt>
  <wpt lat="45.1979268" lon="5.7778433">
    <src>0dfa9bf09c564f878253471805eb34aa</src>
    <name>Rue de la Piscine 1</name>
    <desc/>
  </wpt>
  <wpt lat="47.2367406" lon="4.6238708">
    <src>0dffaa1aeef3467ea98dc8a94db842fb</src>
    <name>Chemin du Lac 5</name>
    <desc/>
  </wpt>
  <wpt lat="45.8772065" lon="6.4062093">
    <src>0e04eb9483d84f2cbdccd72d8a028039</src>
    <name>Che de Cabeau</name>
    <desc/>
  </wpt>
  <wpt lat="49.4177438" lon="2.8327692">
    <src>0e07af66499f4413a71d38631e915b81</src>
    <name>Impasse d'Alger</name>
    <desc/>
  </wpt>
  <wpt lat="45.5504347" lon="3.7397356">
    <src>0e07fa977646434ca178220de57ed37e</src>
    <name>Place Saint-Jean</name>
    <desc/>
  </wpt>
  <wpt lat="43.2304568" lon="6.5857355">
    <src>0e099e58429f475984e84b6979b0e2d0</src>
    <name>Mont&#233;e Saint Joseph</name>
    <desc>24/7</desc>
  </wpt>
  <wpt lat="45.3825417" lon="4.753722">
    <src>0e09b7e367c24cfb911869923dda7305</src>
    <name>Rue de la Roche</name>
    <desc>10:30-17:30</desc>
  </wpt>
  <wpt lat="46.7991177" lon="6.3047322">
    <src>0e177f8bfdb2459da2d7acd179e0179a</src>
    <name>Place de la Poste</name>
    <desc/>
  </wpt>
  <wpt lat="44.9896909" lon="4.2617463">
    <src>0e1e0055e949404285f88766b9e559ba</src>
    <name>La Grand Pesse</name>
    <desc/>
  </wpt>
  <wpt lat="45.5585971" lon="6.1665049">
    <src>0e2cf7aeee5d4677991f35e98937a087</src>
    <name>Imp de l'Etang</name>
    <desc/>
  </wpt>
  <wpt lat="45.7707523" lon="3.0824415">
    <src>0e491970105b4082bc31195141740dce</src>
    <name>Rue Rouget de Lisle</name>
    <desc/>
  </wpt>
  <wpt lat="48.8913198" lon="2.4547519">
    <src>0e4d15e429374cdf9272eea053bb0dad</src>
    <name>Place des Decouvertes</name>
    <desc/>
  </wpt>
  <wpt lat="49.0767834" lon="3.6414855">
    <src>0e583b1e167e42af981b2d508844402e</src>
    <name>Place de Luxembourg</name>
    <desc/>
  </wpt>
  <wpt lat="44.2180122" lon="3.808824">
    <src>0e5e59affe204b0d94d0ad4761ebfcca</src>
    <name>St Germain Calberte Villag</name>
    <desc/>
  </wpt>
  <wpt lat="43.4818238" lon="2.3764873">
    <src>0e5e68f526b34fa78c8037c1766b1322</src>
    <name>Rue du Faubourg du Gua</name>
    <desc/>
  </wpt>
  <wpt lat="46.2895689" lon="2.659042">
    <src>0e792a24539e405eba169148bb1bf4bd</src>
    <name>Rue Marceau</name>
    <desc/>
  </wpt>
  <wpt lat="45.7796078" lon="4.8400313">
    <src>0e7ec164a2064ebeb61d1ed258bc3119</src>
    <name>Rue Saint Eucher</name>
    <desc>24/7</desc>
  </wpt>
  <wpt lat="43.7911352" lon="3.7329975">
    <src>0e80ed8972f54edb9264974560ab278d</src>
    <name>Place de la Fontaine</name>
    <desc/>
  </wpt>
  <wpt lat="43.912783" lon="3.3174941">
    <src>0e810f94921941ccaf916068dfc0d400</src>
    <name>Le Barry 2</name>
    <desc/>
  </wpt>
  <wpt lat="44.3254819" lon="3.5936878">
    <src>0e8753ffa1b54bc1873318dcee6b12d6</src>
    <name>Rue Neuve</name>
    <desc/>
  </wpt>
  <wpt lat="48.884451" lon="2.3427372">
    <src>0e927d314aab475dac8cd39613aa3da3</src>
    <name>Place Suzanne Valadon</name>
    <desc/>
  </wpt>
  <wpt lat="46.9803738" lon="5.6033961">
    <src>0e97c73d3b1b44d9b14451840ce56549</src>
    <name>Rue Jules Grevy</name>
    <desc/>
  </wpt>
  <wpt lat="48.1401026" lon="7.2609517">
    <src>0e9ce6dc718840b6958fdba09c5fe623</src>
    <name>Rue de l'Oberhof (Kaysersberg)</name>
    <desc>Mo-Su 09:00-20:00</desc>
  </wpt>
  <wpt lat="45.1433365" lon="4.1242154">
    <src>0e9f082296574ae3b82fa6a05fa2d4b8</src>
    <name>Boulevard Saint Pierre</name>
    <desc/>
  </wpt>
  <wpt lat="45.9042761" lon="6.1236979">
    <src>0ead6dc552fe440383ffe8ec57382b99</src>
    <name>Centre commercial Courier</name>
    <desc/>
  </wpt>
  <wpt lat="43.9661532" lon="6.6641602">
    <src>0eb5b26ba6f141d69779ab29bedcdde3</src>
    <name>Remoti</name>
    <desc/>
  </wpt>
  <wpt lat="44.4586988" lon="5.3673007">
    <src>0eb65be81fe34dc2868be9d19ad0377d</src>
    <name>Rue du Terrasson</name>
    <desc/>
  </wpt>
  <wpt lat="45.8172701" lon="5.4156386">
    <src>0ebe07e0772b49af8a9b04355568e594</src>
    <name>Rue des Aulnes</name>
    <desc/>
  </wpt>
  <wpt lat="48.6854664" lon="6.16401">
    <src>0ec97b3fe4bd4950894d3f3776024db6</src>
    <name>Rue Louis Majorelle</name>
    <desc/>
  </wpt>
  <wpt lat="45.6198249" lon="4.9134828">
    <src>0ecd3d7825ef482b8bbdb0bd531d57c0</src>
    <name>Rue Centrale</name>
    <desc/>
  </wpt>
  <wpt lat="46.1363994" lon="3.4333914">
    <src>0ece6585ae294e4698ba0742cfadb43a</src>
    <name>Rue des Peupliers</name>
    <desc/>
  </wpt>
  <wpt lat="44.1238547" lon="5.1816538">
    <src>0ed55f8436994c9d94c5503ee2fed6bb</src>
    <name>Place de la R&#233;publique</name>
    <desc/>
  </wpt>
  <wpt lat="48.8114718" lon="2.3287923">
    <src>0ed69d50dfc54e1a804c464cfabf7044</src>
    <name>Centre commercial de la Vache Noire</name>
    <desc/>
  </wpt>
  <wpt lat="50.6131337" lon="3.1236649">
    <src>0edcd0e0ac4546bfbf7f637f161665c8</src>
    <name>Voie Contour Sud-Est Lezennes 1</name>
    <desc/>
  </wpt>
  <wpt lat="48.908279" lon="2.303229">
    <src>0ee01dc0539d40e5bbfdd1d31abaf346</src>
    <name>Rue de Stepney</name>
    <desc/>
  </wpt>
  <wpt lat="43.7354163" lon="6.6247509">
    <src>0eea45d466b54df6b5f3c7c963c94563</src>
    <name>Chemin de l'Escombaou</name>
    <desc/>
  </wpt>
  <wpt lat="46.0664202" lon="6.3114131">
    <src>0ef35e1a8b4744c1a4146e856826a8b8</src>
    <name>Pl Andrevetan</name>
    <desc/>
  </wpt>
  <wpt lat="43.7433338" lon="4.7941817">
    <src>0ef5c35b31844576a55522a057e14518</src>
    <name>Rue du Trencat 1</name>
    <desc/>
  </wpt>
  <wpt lat="46.4579207" lon="2.5579703">
    <src>0ef8dcef990649baaf4f8f1fb3acacdc</src>
    <name>Chemin des Vignes</name>
    <desc/>
  </wpt>
  <wpt lat="43.0528174" lon="2.2146378">
    <src>0f01b17bf58745199aac98a6d32b5b60</src>
    <name>Rue Traversiere du College</name>
    <desc/>
  </wpt>
  <wpt lat="44.0564079" lon="4.5333683">
    <src>0f21ddb6ad2646658424abf2b2e4b0b5</src>
    <name>Chemin des Casels</name>
    <desc/>
  </wpt>
  <wpt lat="45.4574224" lon="6.2931302">
    <src>0f23d8a1aaf64c59b149760e9241dc2c</src>
    <name>Imp des Fabriques</name>
    <desc/>
  </wpt>
  <wpt lat="45.0812233" lon="6.1593902">
    <src>0f26212955d443fd9343aaca515d3191</src>
    <name>Clavans le Haut</name>
    <desc/>
  </wpt>
  <wpt lat="45.8158005" lon="5.4260276">
    <src>0f3020b35ddb43f59b528cc65bcaf4c2</src>
    <name>Chemin du Point Vert 1</name>
    <desc/>
  </wpt>
  <wpt lat="44.0016437" lon="3.0473123">
    <src>0f54dd8278e141fea7530680f702f712</src>
    <name>La Bastide Pradines</name>
    <desc/>
  </wpt>
  <wpt lat="47.3381573" lon="5.0543517">
    <src>0f572abd33454ea59ebfa75d4777109a</src>
    <name>Rue Florian</name>
    <desc/>
  </wpt>
  <wpt lat="44.3699179" lon="3.5350478">
    <src>0f6f54d7697e4292a2f5f0771883f4a3</src>
    <name>Place de l'Eglise</name>
    <desc/>
  </wpt>
  <wpt lat="46.3377683" lon="5.1287024">
    <src>0f808f9b786f45f8b1b7b6eee1fe625e</src>
    <name>Place du 3 Septembre</name>
    <desc/>
  </wpt>
  <wpt lat="43.6329394" lon="3.8712775">
    <src>0f80f2ee526e477e8a9967a35a097a15</src>
    <name>Avenue du Val de Montferrand 2</name>
    <desc/>
  </wpt>
  <wpt lat="43.9360759" lon="5.1062401">
    <src>0f8d3582440948ac9527a0ae9c9dee13</src>
    <name>Calado Dou Mitan</name>
    <desc/>
  </wpt>
  <wpt lat="44.3779597" lon="2.5689385">
    <src>0f959feb781f4ed38035ef9484699b49</src>
    <name>Rue des Roitelets 1</name>
    <desc/>
  </wpt>
  <wpt lat="42.7275182" lon="3.0385052">
    <src>0fa991ae928840caaa0f13146248c23b</src>
    <name>Rue des Goelands</name>
    <desc/>
  </wpt>
  <wpt lat="43.6430515" lon="3.4592747">
    <src>0fad59ad1e214ae495188d818179bb8e</src>
    <name>Rue de la Cambalade</name>
    <desc/>
  </wpt>
  <wpt lat="48.8107094" lon="2.1494579">
    <src>0fb03ebeaef442fcabd47a444aeac1f2</src>
    <name>Avenue des Etats Unis</name>
    <desc/>
  </wpt>
  <wpt lat="48.7384701" lon="2.091938">
    <src>0fb1867682bd4d8ea6d924df4bfe9121</src>
    <name>All&#233;e du Clos Brosset</name>
    <desc/>
  </wpt>
  <wpt lat="45.6925464" lon="5.8915683">
    <src>0fb6272bb7324736b425a2924f3b67bc</src>
    <name>Esp du Petit Port 1</name>
    <desc/>
  </wpt>
  <wpt lat="45.2562716" lon="5.0281882">
    <src>0fc875b9b3084a5c89b06c5705e38e8e</src>
    <name>Pal Ideal du Facteur Cheval</name>
    <desc/>
  </wpt>
  <wpt lat="47.2377055" lon="6.0235436">
    <src>0fe4dc4efeb54cf6aa0193772574cce2</src>
    <name>Rue Hugues Sambin</name>
    <desc>Mo-Su 00:00-01:00,05:00-24:00</desc>
  </wpt>
  <wpt lat="48.1247718" lon="5.9384979">
    <src>0fe5c07add834ff7b3d59b2b1a7c3d5c</src>
    <name>Rue de la Croix</name>
    <desc/>
  </wpt>
  <wpt lat="48.9005943" lon="2.3351104">
    <src>0fe5c753f0024fb5bae97c941cb1e47f</src>
    <name>Rue G&#233;rard de Nerval</name>
    <desc/>
  </wpt>
  <wpt lat="45.5125792" lon="2.734221">
    <src>0fefde86d66b4fbba3b9138fd168c01a</src>
    <name>16 Place de l'Eglise</name>
    <desc/>
  </wpt>
  <wpt lat="48.8834207" lon="2.3474397">
    <src>0ff0951c67434fdfa0c3fdb1b88cb953</src>
    <name>Rue du Delta</name>
    <desc/>
  </wpt>
  <wpt lat="43.8948256" lon="-0.5077147">
    <src>10000045035</src>
    <name>42bis Boulevard d'Haussez</name>
    <desc/>
  </wpt>
  <wpt lat="43.8954567" lon="-0.5181598">
    <src>10000045054</src>
    <name>779 Rue du P&#233;gl&#233;</name>
    <desc/>
  </wpt>
  <wpt lat="47.5488377" lon="-1.1228076">
    <src>10000369075</src>
    <name>Place du Ch&#234;ne Vert</name>
    <desc/>
  </wpt>
  <wpt lat="42.6173445971688" lon="3.00413213966486">
    <src>1000040225</src>
    <name>19 Rue Jules Lema&#244;tre</name>
    <desc/>
  </wpt>
  <wpt lat="49.4218065" lon="2.8229316">
    <src>10000423644</src>
    <name>8 Place de la Gare</name>
    <desc/>
  </wpt>
  <wpt lat="50.4109347" lon="1.563501">
    <src>10002644893</src>
    <name>3 Avenue du Docteur Quettier</name>
    <desc/>
  </wpt>
  <wpt lat="49.0890206" lon="6.1520326">
    <src>10002811009</src>
    <name>17 Rue Louis Bl&#233;riot</name>
    <desc/>
  </wpt>
  <wpt lat="49.3390678" lon="-0.5848302">
    <src>10003618156</src>
    <name>6 Rue de la Poste</name>
    <desc/>
  </wpt>
  <wpt lat="48.2036415" lon="-4.5280069">
    <src>10003968118</src>
    <name>chemin des Saules</name>
    <desc/>
  </wpt>
  <wpt lat="50.2137345" lon="3.8652803">
    <src>10004192093</src>
    <name>6 Rue Edmond Havret</name>
    <desc/>
  </wpt>
  <wpt lat="48.2740669" lon="-4.5960449">
    <src>10004239146</src>
    <name>1 rue du Loch</name>
    <desc/>
  </wpt>
  <wpt lat="45.0304501" lon="1.1281335">
    <src>10004442481</src>
    <name>210 All&#233;e Jean II de Losse</name>
    <desc/>
  </wpt>
  <wpt lat="47.7852822" lon="3.5877079">
    <src>10004729548</src>
    <name>10 Route de Vaux</name>
    <desc/>
  </wpt>
  <wpt lat="47.7857626" lon="3.5864114">
    <src>10004765440</src>
    <name>3 Avenue de Provence</name>
    <desc/>
  </wpt>
  <wpt lat="48.6381854" lon="-2.0693039">
    <src>10006513118</src>
    <name>7bis Passage du Tertre Mignon</name>
    <desc/>
  </wpt>
  <wpt lat="43.5400337" lon="2.2634334">
    <src>10006623188</src>
    <name>2 Rue du Presbyt&#232;re</name>
    <desc/>
  </wpt>
  <wpt lat="46.4837812" lon="-1.7559835">
    <src>10006680479</src>
    <name>2 Route du tour de france</name>
    <desc/>
  </wpt>
  <wpt lat="43.9279504" lon="5.8910916">
    <src>10006821265</src>
    <name>Place Sainte Agathe</name>
    <desc/>
  </wpt>
  <wpt lat="48.5800218" lon="-4.2099229">
    <src>10008574583</src>
    <name>75 Rue du Manoir</name>
    <desc/>
  </wpt>
  <wpt lat="48.7695729" lon="-3.5847113">
    <src>10009350066</src>
    <name>Port de Trozoul 1</name>
    <desc/>
  </wpt>
  <wpt lat="45.9610826" lon="-1.1192268">
    <src>10009628818</src>
    <name>2650 L&#8217;Ile Madame</name>
    <desc/>
  </wpt>
  <wpt lat="48.6444733" lon="-4.3645417">
    <src>10009898857</src>
    <name>102 Rue de la C&#244;te des L&#233;gendes</name>
    <desc/>
  </wpt>
  <wpt lat="50.9614550527134" lon="1.82727044147821">
    <src>1001112183</src>
    <name>1255 Digue Gaston Berthe</name>
    <desc/>
  </wpt>
  <wpt lat="48.6231499756478" lon="2.45070930180852">
    <src>1001118372</src>
    <name>1 Place du 19 Mars 1962</name>
    <desc/>
  </wpt>
  <wpt lat="48.6912128" lon="2.30505">
    <src>10011270413</src>
    <name>2 Rue Daniel Mayer</name>
    <desc/>
  </wpt>
  <wpt lat="47.4518344" lon="5.6024779">
    <src>10011568883</src>
    <name>9 Rue de la Plage</name>
    <desc/>
  </wpt>
  <wpt lat="43.4527612" lon="5.8588455">
    <src>10012271704</src>
    <name>12 All&#233;e des Cerisiers</name>
    <desc>24/7</desc>
  </wpt>
  <wpt lat="49.8607961" lon="0.7136508">
    <src>10012739369</src>
    <name>16 Rue Ravine</name>
    <desc/>
  </wpt>
  <wpt lat="43.3309111" lon="-1.7381802">
    <src>10012830209</src>
    <name>174 Xoldokogainako bidea</name>
    <desc/>
  </wpt>
  <wpt lat="43.5456168" lon="-1.1044929">
    <src>10012833208</src>
    <name>411 Place Aristide Briand</name>
    <desc/>
  </wpt>
  <wpt lat="43.1249177" lon="-0.2076103">
    <src>10012840747</src>
    <name>15 Avenue de Betharram</name>
    <desc/>
  </wpt>
  <wpt lat="43.3984133" lon="-0.6237946">
    <src>10012851197</src>
    <name>29 Rue Galos</name>
    <desc/>
  </wpt>
  <wpt lat="43.2349403" lon="0.1974104">
    <src>10012853452</src>
    <name>50 Route de Laslades</name>
    <desc/>
  </wpt>
  <wpt lat="43.4701558" lon="-0.9245579">
    <src>10012853542</src>
    <name>Rue Cauhap&#233;</name>
    <desc/>
  </wpt>
  <wpt lat="43.3352974" lon="-0.5062721">
    <src>10012870445</src>
    <name>4bis Rue du G&#233;n&#233;ral Pommi&#233;s</name>
    <desc/>
  </wpt>
  <wpt lat="43.1749907" lon="0.0192843">
    <src>10012871168</src>
    <name>6 Rue du Vignemale</name>
    <desc/>
  </wpt>
  <wpt lat="47.6187121" lon="1.9346894">
    <src>10013254942</src>
    <name>Adresse inconnue Loir-et-Cher 1</name>
    <desc/>
  </wpt>
  <wpt lat="44.9744689" lon="1.3224646">
    <src>10013290026</src>
    <name>19 Rue Sainte-croix</name>
    <desc/>
  </wpt>
  <wpt lat="48.5532681" lon="2.1253022">
    <src>10013518112</src>
    <name>Ruelle Pajadon</name>
    <desc/>
  </wpt>
  <wpt lat="44.478285" lon="1.2878291">
    <src>10013814240</src>
    <name>29 Avenue d'Uxellodunum</name>
    <desc/>
  </wpt>
  <wpt lat="48.5875832596815" lon="7.74068287561459">
    <src>1001386070</src>
    <name>25 Place des Halles</name>
    <desc/>
  </wpt>
  <wpt lat="42.7918467" lon="1.6886545">
    <src>10015144360</src>
    <name>25 Route des C&#244;tes</name>
    <desc/>
  </wpt>
  <wpt lat="45.2087585" lon="6.445241">
    <src>10015195996</src>
    <name>Adresse inconnue Savoie 1</name>
    <desc/>
  </wpt>
  <wpt lat="43.4692316" lon="-1.4236388">
    <src>10015221261</src>
    <name>582 Avenue de la Croix de Mouguerre</name>
    <desc/>
  </wpt>
  <wpt lat="47.4134753" lon="-1.6524497">
    <src>10015228114</src>
    <name>2 Place Saint Nicolas</name>
    <desc/>
  </wpt>
  <wpt lat="49.1937156" lon="2.4798405">
    <src>10015533731</src>
    <name>1 Rue du Conn&#232;table</name>
    <desc/>
  </wpt>
  <wpt lat="46.2274099" lon="-1.4127868">
    <src>10015681217</src>
    <name>32 Route du Grouin</name>
    <desc/>
  </wpt>
  <wpt lat="48.9743162" lon="4.3745148">
    <src>10015719834</src>
    <name>61 Rue du Commandant Derrien</name>
    <desc/>
  </wpt>
  <wpt lat="46.1908226" lon="-1.4309539">
    <src>10016061117</src>
    <name>30 Route de Joachim</name>
    <desc/>
  </wpt>
  <wpt lat="46.1476409" lon="6.7224775">
    <src>10016953726</src>
    <name>Adresse inconnue Haute-Savoie 1</name>
    <desc/>
  </wpt>
  <wpt lat="46.0538218" lon="1.4796846">
    <src>10017626744</src>
    <name>42 Rue de l&#8217;Esperance</name>
    <desc/>
  </wpt>
  <wpt lat="46.9318643" lon="-0.5174826">
    <src>10017742586</src>
    <name>1 Place de la Mairie</name>
    <desc/>
  </wpt>
  <wpt lat="50.2858621" lon="2.7667941">
    <src>10017757931</src>
    <name>31 Rue du Jeu de Paume</name>
    <desc/>
  </wpt>
  <wpt lat="44.6502116" lon="2.2165547">
    <src>10018202932</src>
    <name>2 Rue de la Martinie</name>
    <desc/>
  </wpt>
  <wpt lat="47.9775844" lon="1.8575473">
    <src>10018269446</src>
    <name>Le Bois Picard 1</name>
    <desc/>
  </wpt>
  <wpt lat="49.5147103" lon="-1.8049018">
    <src>100184161</src>
    <name>1bis Rue du Castillon 1</name>
    <desc/>
  </wpt>
  <wpt lat="49.5126915346174" lon="-1.80850043323856">
    <src>100184162</src>
    <name>2 Route du Rozel 1</name>
    <desc/>
  </wpt>
  <wpt lat="48.1537741885827" lon="0.122634364800383">
    <src>1001862282</src>
    <name>11 Rue des Ormeaux</name>
    <desc/>
  </wpt>
  <wpt lat="48.15071545" lon="0.11887465">
    <src>1001862283</src>
    <name>10 Place de la Mairie</name>
    <desc/>
  </wpt>
  <wpt lat="46.258623" lon="6.5719653">
    <src>10018778565</src>
    <name>1631 Route de l'Ermont</name>
    <desc/>
  </wpt>
  <wpt lat="45.3714931953195" lon="7.04665363556356">
    <src>100195537</src>
    <name>25 La Ruelle</name>
    <desc/>
  </wpt>
  <wpt lat="47.0800799" lon="5.8859516">
    <src>10020162850</src>
    <name>2 ZA la Combe Parnette</name>
    <desc/>
  </wpt>
  <wpt lat="49.9092134" lon="1.078527">
    <src>10020539194</src>
    <name>1 passage de vancouver</name>
    <desc/>
  </wpt>
  <wpt lat="45.0295122405892" lon="5.05350209985976">
    <src>1002246862</src>
    <name>47 Avenue Rene Coty</name>
    <desc/>
  </wpt>
  <wpt lat="50.6386709" lon="2.3962412">
    <src>10022531656</src>
    <name>2 Passage des Hallettes</name>
    <desc/>
  </wpt>
  <wpt lat="49.9074639" lon="2.5123211">
    <src>10022569092</src>
    <name>1 Rue Faidherbe</name>
    <desc/>
  </wpt>
  <wpt lat="44.5476205334196" lon="6.48529905383306">
    <src>1002370691</src>
    <name>60 Route des Orres</name>
    <desc/>
  </wpt>
  <wpt lat="49.1231551" lon="-0.7176525">
    <src>10024013252</src>
    <name>32 Rue Monseigneur Paysant</name>
    <desc/>
  </wpt>
  <wpt lat="49.099911352153" lon="2.52546250048463">
    <src>1002682604</src>
    <name>18 Place de la Liberte</name>
    <desc/>
  </wpt>
  <wpt lat="48.8322443" lon="2.31952">
    <src>10026861434</src>
    <name>4 Rue des Thermopyles</name>
    <desc/>
  </wpt>
  <wpt lat="45.5105666" lon="1.2020059">
    <src>10027058837</src>
    <name>17 Place de la Nation</name>
    <desc/>
  </wpt>
  <wpt lat="45.6662575" lon="4.8553422">
    <src>10030115841</src>
    <name>5 Rue de Bellevue</name>
    <desc/>
  </wpt>
  <wpt lat="42.620304" lon="2.7020198">
    <src>10030378095</src>
    <name>51 Village</name>
    <desc/>
  </wpt>
  <wpt lat="48.4850418294562" lon="2.35178129326921">
    <src>1003079269</src>
    <name>14 Avenue du General Leclerc</name>
    <desc/>
  </wpt>
  <wpt lat="48.3899157" lon="-4.5006128">
    <src>10030901761</src>
    <name>40 esplanade de la Fraternit&#233;</name>
    <desc/>
  </wpt>
  <wpt lat="43.2855808" lon="5.3950131">
    <src>10030956872</src>
    <name>8 Place Pierre Roux 1</name>
    <desc/>
  </wpt>
  <wpt lat="43.2855747" lon="5.3950064">
    <src>10030956875</src>
    <name>8 Place Pierre Roux 2</name>
    <desc/>
  </wpt>
  <wpt lat="43.2855741" lon="5.3950038">
    <src>10030956876</src>
    <name>8 Place Pierre Roux 3</name>
    <desc/>
  </wpt>
  <wpt lat="43.285576" lon="5.395003">
    <src>10030964153</src>
    <name>8 Place Pierre Roux 4</name>
    <desc/>
  </wpt>
  <wpt lat="48.1267591" lon="0.6229861">
    <src>10031738520</src>
    <name>Adresse inconnue Sarthe 1</name>
    <desc/>
  </wpt>
  <wpt lat="48.8062144" lon="2.0607592">
    <src>10031749959</src>
    <name>6 Rue Pierre Brossolette 1</name>
    <desc/>
  </wpt>
  <wpt lat="46.3665148" lon="4.2315669">
    <src>10032036153</src>
    <name>8 Rue du Couvent</name>
    <desc/>
  </wpt>
  <wpt lat="44.7609642" lon="-0.6557705">
    <src>10032096527</src>
    <name>10 Chemin de Cassiot</name>
    <desc/>
  </wpt>
  <wpt lat="45.9370966" lon="4.2692581">
    <src>10032150476</src>
    <name>21 Impasse des Jardins</name>
    <desc/>
  </wpt>
  <wpt lat="44.4817167693907" lon="4.76297422894098">
    <src>1003223378</src>
    <name>265 Chemin de la Combe</name>
    <desc/>
  </wpt>
  <wpt lat="43.6174422" lon="3.3609193">
    <src>10032407074</src>
    <name>7 Route de la Dolomie</name>
    <desc/>
  </wpt>
  <wpt lat="43.7998883" lon="3.2134243">
    <src>10032409417</src>
    <name>2 Rue de la Carrierasse</name>
    <desc/>
  </wpt>
  <wpt lat="45.5300188520821" lon="2.97537878324482">
    <src>1003278616</src>
    <name>10 Place de l'Eglise</name>
    <desc/>
  </wpt>
  <wpt lat="48.4795339" lon="-4.337066">
    <src>10033481800</src>
    <name>7 place St-Nicolas</name>
    <desc/>
  </wpt>
  <wpt lat="44.6515334" lon="4.4425557">
    <src>10033776319</src>
    <name>10 Place de la Mairie</name>
    <desc/>
  </wpt>
  <wpt lat="48.1184999" lon="-1.6705113">
    <src>10033795045</src>
    <name>75 Rue Jean Gu&#233;henno</name>
    <desc/>
  </wpt>
  <wpt lat="45.8982107" lon="6.0409786">
    <src>10033802791</src>
    <name>1214 Route des gorges</name>
    <desc/>
  </wpt>
  <wpt lat="47.7414708" lon="-2.5012036">
    <src>10033817155</src>
    <name>12 Rue de l'Arz</name>
    <desc/>
  </wpt>
  <wpt lat="47.3069637" lon="2.8700042">
    <src>10033949771</src>
    <name>7 Le Guenetin</name>
    <desc/>
  </wpt>
  <wpt lat="45.8871459" lon="-0.3111349">
    <src>10033980809</src>
    <name>18 Rue de l&#8217;Eglise</name>
    <desc/>
  </wpt>
  <wpt lat="50.6409157" lon="3.0766801">
    <src>10034704460</src>
    <name>51 Rue d&#8217;Esch sur Alzette</name>
    <desc/>
  </wpt>
  <wpt lat="48.4052355" lon="-4.4493752">
    <src>10034990880</src>
    <name>19 rue de l'Aulne</name>
    <desc/>
  </wpt>
  <wpt lat="48.4082132" lon="-4.4496824">
    <src>10035017934</src>
    <name>40 route Stang Alar</name>
    <desc/>
  </wpt>
  <wpt lat="43.9647631260742" lon="1.42892477578577">
    <src>1003553191</src>
    <name>907 Route d'Albi</name>
    <desc/>
  </wpt>
  <wpt lat="48.6342323512937" lon="2.45242804835487">
    <src>1003553651</src>
    <name>13 Avenue Fragonard</name>
    <desc/>
  </wpt>
  <wpt lat="45.1657264" lon="6.4290532">
    <src>10035805329</src>
    <name>210 Rue des Grandes Alpes</name>
    <desc/>
  </wpt>
  <wpt lat="46.317345" lon="2.9530075">
    <src>10036558292</src>
    <name>2 Avenue Henri Brun</name>
    <desc/>
  </wpt>
  <wpt lat="46.2103737" lon="0.1631616">
    <src>10039091847</src>
    <name>5 Route de Senille</name>
    <desc/>
  </wpt>
  <wpt lat="49.0143683487001" lon="2.0790502681173">
    <src>1003928817</src>
    <name>12 Mail Gay Lussac</name>
    <desc/>
  </wpt>
  <wpt lat="46.6420678" lon="-1.718997">
    <src>10039957474</src>
    <name>4 Impasse Henri Mornet</name>
    <desc/>
  </wpt>
  <wpt lat="42.6937187" lon="2.8955466">
    <src>10040184578</src>
    <name>34 Rue des ARCHERS</name>
    <desc/>
  </wpt>
  <wpt lat="46.6575068" lon="5.964823">
    <src>10040387286</src>
    <name>16 Grande Rue</name>
    <desc/>
  </wpt>
  <wpt lat="48.57740028714" lon="7.74710420438541">
    <src>1004109935</src>
    <name>7 Rue de l'Ecarlate 1</name>
    <desc/>
  </wpt>
  <wpt lat="48.5773945613652" lon="7.74704650068057">
    <src>1004109936</src>
    <name>7 Rue de l'Ecarlate 2</name>
    <desc/>
  </wpt>
  <wpt lat="48.5769876763429" lon="7.74724484932596">
    <src>1004109951</src>
    <name>7 Rue de l'Ecarlate 3</name>
    <desc/>
  </wpt>
  <wpt lat="48.5771934982866" lon="7.74731011066979">
    <src>1004109981</src>
    <name>7 Rue de l'Ecarlate 4</name>
    <desc/>
  </wpt>
  <wpt lat="48.7962102" lon="2.3343824">
    <src>10042412098</src>
    <name>11 Avenue Cousin de M&#233;ricourt</name>
    <desc/>
  </wpt>
  <wpt lat="44.1885296" lon="3.1342822">
    <src>10042806441</src>
    <name>30 Route des Gorges du Tarn 1</name>
    <desc/>
  </wpt>
  <wpt lat="44.3714716868732" lon="4.64376613083506">
    <src>1004286416</src>
    <name>1 Place du Champ de Mars</name>
    <desc/>
  </wpt>
  <wpt lat="48.5774052855216" lon="7.74707266362111">
    <src>1004297370</src>
    <name>7 Rue de l'Ecarlate 5</name>
    <desc/>
  </wpt>
  <wpt lat="48.5773709423091" lon="7.74673649249647">
    <src>1004297372</src>
    <name>7 Rue de l'Ecarlate 6</name>
    <desc/>
  </wpt>
  <wpt lat="43.8636702" lon="3.3127375">
    <src>10043432417</src>
    <name>Aire de Service &#224; 75</name>
    <desc/>
  </wpt>
  <wpt lat="48.5774052687618" lon="7.74707265018539">
    <src>1004364620</src>
    <name>7 Rue de l'Ecarlate 7</name>
    <desc/>
  </wpt>
  <wpt lat="48.5774534408747" lon="7.74755591644019">
    <src>1004364640</src>
    <name>7 Rue de l'Ecarlate 8</name>
    <desc/>
  </wpt>
  <wpt lat="48.5773706670567" lon="7.74673371705514">
    <src>1004364643</src>
    <name>7 Rue de l'Ecarlate 9</name>
    <desc/>
  </wpt>
  <wpt lat="48.5771811436931" lon="7.74735956830979">
    <src>1004364665</src>
    <name>7 Rue de l'Ecarlate 10</name>
    <desc/>
  </wpt>
  <wpt lat="48.5769887927201" lon="7.74725607439969">
    <src>1004364672</src>
    <name>7 Rue de l'Ecarlate 11</name>
    <desc/>
  </wpt>
  <wpt lat="43.291767" lon="-0.370276">
    <src>10044148982</src>
    <name>1 avenue Jean Biray</name>
    <desc/>
  </wpt>
  <wpt lat="43.2943655" lon="-0.372872">
    <src>10044222551</src>
    <name>3 rue de Gontaut Biron</name>
    <desc>24/7</desc>
  </wpt>
  <wpt lat="47.4761472" lon="-1.7627275">
    <src>10045871365</src>
    <name>2 Place du Maquis de Saffre</name>
    <desc/>
  </wpt>
  <wpt lat="49.1056589558397" lon="6.15958839328284">
    <src>100466179</src>
    <name>24 Rue Charles de Gaulle</name>
    <desc/>
  </wpt>
  <wpt lat="43.6471875" lon="1.5094825">
    <src>100466488</src>
    <name>17 All&#233;e de Longueterre</name>
    <desc/>
  </wpt>
  <wpt lat="47.3262581" lon="6.122887">
    <src>10046701817</src>
    <name>114 Rue du Fourney</name>
    <desc/>
  </wpt>
  <wpt lat="45.1743019" lon="5.7430432">
    <src>10046770284</src>
    <name>17 Rue Emile Romanet</name>
    <desc/>
  </wpt>
  <wpt lat="47.8946047" lon="-4.0114555">
    <src>10047354554</src>
    <name>Passage du Penker</name>
    <desc/>
  </wpt>
  <wpt lat="48.2234695" lon="-4.4997732">
    <src>10047396124</src>
    <name>3 all&#233;e du Phare</name>
    <desc/>
  </wpt>
  <wpt lat="44.0637763" lon="7.1318522">
    <src>10047414190</src>
    <name>3 Promenade Saint-Roch</name>
    <desc/>
  </wpt>
  <wpt lat="47.5037537" lon="-0.8011904">
    <src>10047929129</src>
    <name>2 Rue de Segr&#233;</name>
    <desc/>
  </wpt>
  <wpt lat="47.5038893" lon="-0.8009382">
    <src>10047929130</src>
    <name>3 Rue Saint Louis</name>
    <desc/>
  </wpt>
  <wpt lat="44.8084552" lon="-0.1723674">
    <src>10047992151</src>
    <name>2 Lieu-dit le Bourg</name>
    <desc/>
  </wpt>
  <wpt lat="46.4954739" lon="5.3163239">
    <src>10048720817</src>
    <name>1700 Chemin de l&#8217;Aire du Poulet</name>
    <desc/>
  </wpt>
  <wpt lat="46.1701357" lon="3.8548286">
    <src>10049042247</src>
    <name>43 Route de Saint-Bonnet-des-Quarts</name>
    <desc/>
  </wpt>
  <wpt lat="42.9927574" lon="-0.1265874">
    <src>10049090357</src>
    <name>1 Passage Cazale</name>
    <desc/>
  </wpt>
  <wpt lat="48.8823852" lon="2.3441309">
    <src>10049129317</src>
    <name>3 Place d'Anvers</name>
    <desc/>
  </wpt>
  <wpt lat="45.4033802" lon="3.12613">
    <src>10049687754</src>
    <name>Place de la Fontaine</name>
    <desc/>
  </wpt>
  <wpt lat="42.7283568" lon="0.096085">
    <src>10049718397</src>
    <name>Adresse inconnue Hautes-Pyr&#233;n&#233;es 1</name>
    <desc/>
  </wpt>
  <wpt lat="47.4596205" lon="3.5189882">
    <src>10050220555</src>
    <name>Rue de la Halle</name>
    <desc/>
  </wpt>
  <wpt lat="48.1997675792312" lon="0.500647261048114">
    <src>1005088267</src>
    <name>6 Rue de la Mairie</name>
    <desc/>
  </wpt>
  <wpt lat="43.7728079" lon="6.2054032">
    <src>10050939864</src>
    <name>14 Rue Sainte Catherine</name>
    <desc/>
  </wpt>
  <wpt lat="45.6660096" lon="0.1612946">
    <src>10051043447</src>
    <name>65 Route de Vars</name>
    <desc/>
  </wpt>
  <wpt lat="45.3872903" lon="0.171875">
    <src>10051674459</src>
    <name>Chateau de Maumont</name>
    <desc/>
  </wpt>
  <wpt lat="47.775702" lon="-3.3422811">
    <src>10052165041</src>
    <name>78z Avenue Ambroise Croizat</name>
    <desc/>
  </wpt>
  <wpt lat="48.9095949234543" lon="2.24008271946298">
    <src>1005276912</src>
    <name>Rue de l'Arriv&#233;e</name>
    <desc/>
  </wpt>
  <wpt lat="48.8713681884249" lon="2.09676511896888">
    <src>1005334560</src>
    <name>7 Place de la Gare</name>
    <desc/>
  </wpt>
  <wpt lat="44.8418893" lon="0.2135067">
    <src>10053652564</src>
    <name>5 Rue Jean Louis Faure</name>
    <desc/>
  </wpt>
  <wpt lat="43.7341002" lon="5.9629905">
    <src>10054041447</src>
    <name>Adresse inconnue Alpes-de-Haute-Provence 1</name>
    <desc/>
  </wpt>
  <wpt lat="46.3935466842831" lon="6.60219243519793">
    <src>1005559068</src>
    <name>308 Avenue de Seuvay</name>
    <desc/>
  </wpt>
  <wpt lat="48.7066516546459" lon="2.48302477804069">
    <src>1005606941</src>
    <name>5 Rue Louis Armand</name>
    <desc/>
  </wpt>
  <wpt lat="48.9136202495901" lon="2.25815792640117">
    <src>1005626426</src>
    <name>1 Place de la Gare des Vallees</name>
    <desc/>
  </wpt>